municipio;ranking_polo_municipal;ranking_polo_geral;local_votacao;endereco_local_votacao;latitude;longitude;bairro;distrito;status_geocodificacao;qtd_secoes;qtd_vereadores;votos_totais;vereador_principal;partido_vereador_principal;votos_vereador_principal;percentual_dominancia;indice_influencia_local;classificacao_local;potencial_agenda_davi
MACEIO;1;1;UNIMA / AFYA - CENTRO UNIVERSITÁRIO DE MACEIÓ (ANTIGA UNIT);AV GUSTAVO PAIVA, 5017;-9.6478561;-35.7147108;Mangabeiras;;ENCONTRADO;41;54;5177;DAVID CABRAL DAVINO;PP;540;10.43;85.88;PRIORIDADE MÁXIMA;AGENDA IMEDIATA
ARAPIRACA;1;2;ESCOLA DE 1 E 2 GRAUS SENADOR RUI PALMEIRA;RUA MANOEL NUNES NETO S/N;-9.7414437;-36.6642875;Capiatá;;ENCONTRADO;16;102;2981;ROGERIO PEREIRA MELO;MDB;355;11.91;66.6;PRIORIDADE MÁXIMA;AGENDA IMEDIATA
ARAPIRACA;2;3;COLÉGIO QUINTELA CAVALCANTE;AV. VENTURA DE FARIAS S/N;-9.7466266;-36.6673366;Eldorado;;ENCONTRADO;16;96;3022;ROGERIO PEREIRA MELO;MDB;292;9.66;65.23;PRIORIDADE MÁXIMA;AGENDA IMEDIATA
ARAPIRACA;3;4;ESCOLA PROFESSORA IZAURA ANTÔNIA LISBOA;RUA ANTÔNIO MARROQUIM S/N;-9.7479462;-36.6693345;Baixão;;ENCONTRADO;14;96;2506;ROGERIO PEREIRA MELO;MDB;212;8.46;59.27;PRIORIDADE MÁXIMA;AGENDA IMEDIATA
ARAPIRACA;4;5;ESCOLA AURINO MACIEL;RUA DOM FELÍCIO VASCONCELOS,S/N;-9.7453734;-36.6648859;Centro;;ENCONTRADO;12;92;2264;ROGERIO PEREIRA MELO;MDB;234;10.34;54.78;PRIORIDADE MÁXIMA;AGENDA IMEDIATA
MACEIO;2;6;ESCOLA DE ENSINO FUNDAMENTAL DR JOSE HAROLDO DA COSTA;CONJ. SALVADOR LIRA, S/N;;;;;NAO_ENCONTRADO;18;48;3182;MARIA DE FÁTIMA GALINA FORTES FERREIRA SANTIAGO;MDB;383;12.04;53.63;PRIORIDADE MÁXIMA;AGENDA IMEDIATA
ARAPIRACA;5;7;ESCOLA DE 1 GRAU MANOEL LUCIO DA SILVA;RUA MANOEL LÚCIO S/N;-9.7464382;-36.6524184;Alto do Cruzeiro;;ENCONTRADO;12;96;1916;ROGERIO PEREIRA MELO;MDB;160;8.35;52.59;PRIORIDADE MÁXIMA;AGENDA IMEDIATA
UNIAO DOS PALMARES;1;8;COLEGIO DE ENSINO FUNDAMENTAL MONSENHOR CLOVIS DUARTE DE BARROS;RUA JARDIM BRASILIA;-9.1545653;-36.0312271;União dos Palmares;;ENCONTRADO;16;56;2887;CARLOS ALBERTO CORREIA BASILIO;MDB;314;10.88;52.16;PRIORIDADE MÁXIMA;AGENDA IMEDIATA
RIO LARGO;1;9;ESCOLA MUNICIPAL DR. GUSTAVO PAIVA;CJ BARNABÉ OITICICA II, SN, MATA DO ROLO;;;;;NAO_ENCONTRADO;16;55;2868;MÁRCIO SOARES CAVALCANTE;PP;278;9.69;51.68;PRIORIDADE MÁXIMA;AGENDA IMEDIATA
ARAPIRACA;6;10;COLÉGIO SÃO FRANCISCO DE ASSIS;RUA DOM FELÍCIO DE VASCONCELOS S/N;-9.7445436;-36.659204;Senador Teotônio Vilela;;ENCONTRADO;11;91;1906;ROGERIO PEREIRA MELO;MDB;220;11.54;50.54;PRIORIDADE MÁXIMA;AGENDA IMEDIATA
ARAPIRACA;7;11;GRUPO ESCOLAR DJALMA MATHEUS SANTANA;RUA ROSENDO LIMA S/N;-9.7669946;-36.6608561;Primavera;;ENCONTRADO;10;91;1908;WALLYSSON BISPO DA SILVA;PP;182;9.54;50.07;PRIORIDADE MÁXIMA;AGENDA IMEDIATA
PALMEIRA DOS INDIOS;1;12;COLÉGIO CRISTO REDENTOR;AV. DEP. MEDEIROS NETO 51;-9.4113742;-36.6337546;São Cristovão;;ENCONTRADO;21;41;2870;MAXWELL ROCHA FEITOSA;MDB;300;10.45;50.02;PRIORIDADE MÁXIMA;AGENDA IMEDIATA
ARAPIRACA;8;13;UNEAL UNIVERSIDADE ESTADUAL DE ALAGOAS;RUA GOVERNADOR LUIZ CAVALCANTE;-9.7505554;-36.6580852;Alto do Cruzeiro;;ENCONTRADO;13;88;1833;ROGERIO PEREIRA MELO;MDB;173;9.44;49.93;PRIORIDADE MÁXIMA;AGENDA IMEDIATA
PALMEIRA DOS INDIOS;2;14;COLÉGIO ESTADUAL HUMBERTO MENDES;AV GOV MUNIZ FALCÃO 701;;;;;NAO_ENCONTRADO;22;36;2911;MAXWELL ROCHA FEITOSA;MDB;289;9.93;49.43;PRIORIDADE MÁXIMA;AGENDA IMEDIATA
ARAPIRACA;9;15;ESCOLA ENSINO FUNDAMENTAL DIVALDO SURUAGY;RUA ADERVAL INÁCIO DA SILVA, 45, BRASÍLIA, ARAPIRACA;-9.7523022;-36.6444312;Brasília;;ENCONTRADO;10;89;1895;JULIA FABRICIA FERREIRA DE LIMA BEZERRA;MDB;248;13.09;49.36;PRIORIDADE MÁXIMA;AGENDA IMEDIATA
ARAPIRACA;10;16;ESCOLA DE ENSINO FUNDAMENTAL ENÉAS BENEDITO DOS SANTOS;POVOADO CANGANDU S/N;;;;;NAO_ENCONTRADO;11;56;2836;EDVANIO DE OLIVEIRA NUNES;PP;938;33.07;49.23;PRIORIDADE MÁXIMA;AGENDA IMEDIATA
UNIAO DOS PALMARES;2;17;ESCOLA ESTADUAL CARLOS GOMES DE BARROS;AV. JOÃO LYRA FILHO, S/N;;;;;NAO_ENCONTRADO;16;49;2690;EDMILTON RODRIGUES DA SILVA;MDB;322;11.97;48.2;PRIORIDADE MÁXIMA;AGENDA IMEDIATA
ARAPIRACA;11;18;ESCOLA ESTADUAL DE EDUCACAO BASICA COSTA REGO;RUA GOVERNADOR LUIZ CAVALCANTE S/N;-9.7505554;-36.6580852;Alto do Cruzeiro;;ENCONTRADO;14;84;1635;ROGERIO PEREIRA MELO;MDB;180;11.01;47.33;PRIORIDADE MÁXIMA;AGENDA IMEDIATA
MACEIO;3;19;ESCOLA SEB (ANTIGO COC);RUA SENADOR RUI PALMEIRA, 1200;-9.6579315;-35.7095681;Ponta Verde;;ENCONTRADO;21;49;2331;LEONARDO DA FONSECA DIAS;PL;366;15.7;47.17;PRIORIDADE MÁXIMA;AGENDA IMEDIATA
ARAPIRACA;12;20;ESCOLA ALTERNATIVA;RUA FLORIANO PEIXOTO, 98;-9.7477626;-36.66833;Baixão;;ENCONTRADO;10;81;1859;ROGERIO PEREIRA MELO;MDB;221;11.89;46.66;PRIORIDADE MÁXIMA;AGENDA IMEDIATA
MACEIO;4;21;CRECHE ESCOLA ESPAÇO EDUCAR;RUA PROFESSOR SANDOVAL ARROXELAS, N. 510;-9.6588344;-35.7046403;Ponta Verde;;ENCONTRADO;20;46;2406;LEONARDO DA FONSECA DIAS;PL;408;16.96;46.52;PRIORIDADE MÁXIMA;AGENDA IMEDIATA
MACEIO;5;22;E.E. DRA. MARIA JOSE DE MELO (CAIC-B. BENTES);RUA BELO HORIZONTE, S/N;-9.5521408;-35.7303393;Benedito Bentes;;ENCONTRADO;14;45;2709;JOSE SIDERLANE ARAUJO DE MENDONCA;PL;451;16.65;46.23;PRIORIDADE MÁXIMA;AGENDA IMEDIATA
ARAPIRACA;13;23;ESCOLA DE ENSINO FUNDAMENTAL MANOEL HUMBERTO DA COSTA;SÍTIO BATINGAS;;;;;NAO_ENCONTRADO;10;68;2207;LEANDRO BARBOSA DE ALMEIDA;MDB;717;32.49;46.19;PRIORIDADE MÁXIMA;AGENDA IMEDIATA
MACEIO;6;24;E.E. GERALDO MELO DOS SANTOS;RUA 61, QD C-6, CJ. GRACILIANO RAMOS;;;;;NAO_ENCONTRADO;12;44;2825;LUCIANO MARINHO DA SILVA;PL;1276;45.17;46.08;PRIORIDADE MÁXIMA;AGENDA IMEDIATA
ARAPIRACA;14;25;ESCOLA DE ENSINO FUNDAMENTAL CLAUDECY BISPO DOS SANTOS;RUA JOSÉ C. DE FARIAS;;;;;NAO_ENCONTRADO;10;81;1798;ROGERIO PEREIRA MELO;MDB;186;10.34;46.07;PRIORIDADE MÁXIMA;AGENDA IMEDIATA
ARAPIRACA;15;26;ESCOLA DE 1 GRAU PARQUE LIONS;RUA GOV. AFRÂNIO LAGES S/N;;;;;NAO_ENCONTRADO;9;83;1740;WELLINGTON DE MAGALHAES SILVA;MDB;323;18.56;45.61;PRIORIDADE MÁXIMA;AGENDA IMEDIATA
ARAPIRACA;16;27;ESCOLA DE 1 GRAU MANOEL ANDRÉ;AV.  JOSE LÚCIO DA SILVA S/N;;;;;NAO_ENCONTRADO;10;78;1811;ROGERIO PEREIRA MELO;MDB;181;9.99;45.31;PRIORIDADE MÁXIMA;AGENDA IMEDIATA
ARAPIRACA;17;28;GRUPO ESCOLAR 31 DE MARÇO;RUA BRASILIA S/N;-9.7567015;-36.6527243;Brasília;;ENCONTRADO;11;80;1684;JULIA FABRICIA FERREIRA DE LIMA BEZERRA;MDB;238;14.13;45.16;PRIORIDADE MÁXIMA;AGENDA IMEDIATA
UNIAO DOS PALMARES;3;29;COLEGIO DR. MARIO GOMES DE BARROS;RUA JARDIM BRASILIA 378;-9.1545653;-36.0312271;União dos Palmares;;ENCONTRADO;17;53;2193;GUSTAVO THADEU PAULINO PEDROZA;PDT;225;10.26;45.06;PRIORIDADE MÁXIMA;AGENDA IMEDIATA
MACEIO;7;30;ESCOLA ESTADUAL MARGAREZ M. S. LACET;RUA SANTO ANTONIO, S/N;-9.635066;-35.746385;Pinheiro;;ENCONTRADO;14;51;2401;GALBA NOVAIS DE CASTRO NETTO;PL;280;11.66;45.02;PRIORIDADE MÁXIMA;AGENDA IMEDIATA
ARAPIRACA;18;31;ESCOLA DE 1 GRAU ARTUR RAMOS;RUA COSTA CAVALCANTE, S/N;-9.7394987;-36.6757491;Cavaco;;ENCONTRADO;9;82;1709;SERGIO FABIO NUNES;PP;242;14.16;45.01;PRIORIDADE MÁXIMA;AGENDA IMEDIATA
ARAPIRACA;19;32;ESCOLA DE 1 GRAU FERNANDO COLLOR DE MELLO;POVOADO CANAÃ S/N;;;;;NAO_ENCONTRADO;10;59;2301;MARCIO JOSE DA SILVA;MDB;724;31.46;44.45;PRIORIDADE MÁXIMA;AGENDA IMEDIATA
ARAPIRACA;20;33;ESCOLA DE 1 E 2 GRAUS ROSA MISTICA;RUA ESTUDANTE JOSÉ DE OLIVEIRA LEITE S/N;-9.7582024;-36.6551726;Ouro Preto;;ENCONTRADO;12;80;1557;ROGERIO PEREIRA MELO;MDB;120;7.71;44.42;PRIORIDADE MÁXIMA;AGENDA IMEDIATA
RIO LARGO;2;34;COMPLEXO ESTADUAL PROFA CLAUDIZETE LIMA ELEUTERIO;CONJ GURIATA, S/N;;;;;NAO_ENCONTRADO;12;54;2320;NADIELLE NAYARA DA COSTA LOPES;PP;276;11.9;44.14;PRIORIDADE MÁXIMA;AGENDA IMEDIATA
MACEIO;8;35;ESCOLA ESTADUAL ROMEU DE AVELAR;RUA RACOES CARB, S/N;;;;;NAO_ENCONTRADO;14;50;2199;MARIA DE FÁTIMA GALINA FORTES FERREIRA SANTIAGO;MDB;375;17.05;42.77;PRIORIDADE MÁXIMA;AGENDA IMEDIATA
CORURIPE;1;36;ESCOLA ESTADUAL LIMA CASTRO;AVENIDA WASHINTON LUIZ, ANTIGA AV CAMAÇARI;;;;;NAO_ENCONTRADO;14;27;2865;DALMO PORTO SOUZA;PSB;678;23.66;42.44;PRIORIDADE MÁXIMA;AGENDA IMEDIATA
ARAPIRACA;21;37;ESCOLA JOÃO SATURNINO DE ALMEIDA;AV. JOÃO SATURNINO S/N;;;;;NAO_ENCONTRADO;8;76;1630;LEANDRO BARBOSA DE ALMEIDA;MDB;341;20.92;42.0;PRIORIDADE MÁXIMA;AGENDA IMEDIATA
MACEIO;9;38;E.M. FREI DAMIÃO;AV. MUNDAÚ, 120;-9.5552134;-35.7208801;Benedito Bentes;;ENCONTRADO;14;44;2302;JOSE SIDERLANE ARAUJO DE MENDONCA;PL;333;14.47;42.0;PRIORIDADE MÁXIMA;AGENDA IMEDIATA
ARAPIRACA;22;39;ESCOLA DE 1 GRAU PROFESSOR JAYME DE ALTAVILLA;RUA SANTOS DUMONT, 623;-9.7498653;-36.6655146;Centro;;ENCONTRADO;8;77;1595;PABLO EMANUEL DA SILVA;PP;199;12.48;41.95;PRIORIDADE MÁXIMA;AGENDA IMEDIATA
MACEIO;10;40;E.M. JAYME DE ALTAVILLA;RUA DILERMANO REIS, S/N, LOT SANTA LUCIA;;;;;NAO_ENCONTRADO;11;48;2296;FRANCISCO HOLANDA COSTA FILHO;PL;511;22.26;41.66;PRIORIDADE MÁXIMA;AGENDA IMEDIATA
PENEDO;1;41;COLÉGIO ESTADUAL COMENDADOR JOSÉ DA SILVA PEIXOTO;RUA CASTRO ALVES, S/N, EM FRENTE À CODEVASF;;;;;NAO_ENCONTRADO;22;30;2285;IVO CARLOS MOURA COSTA;PV;199;8.71;41.62;PRIORIDADE MÁXIMA;AGENDA IMEDIATA
MACEIO;11;42;ESCOLA ESTADUAL PROFª. ROSALVA PEREIRA VIANA;LOT. POR DO SOL, QD D, S/N, MOCAMBO;;;;;NAO_ENCONTRADO;12;50;2142;FRANCISCO HOLANDA COSTA FILHO;PL;301;14.05;41.25;PRIORIDADE MÁXIMA;AGENDA IMEDIATA
UNIAO DOS PALMARES;4;43;ESCOLA MUNICIPAL JAIRO CORREIA VIANA;RUA TAVARES BASTOS 206;-9.157438;-36.0311805;União dos Palmares;;ENCONTRADO;14;51;2005;ALMIR BELARMINO DA SILVA;PDT;172;8.58;41.19;PRIORIDADE MÁXIMA;AGENDA IMEDIATA
ARAPIRACA;23;44;GRUPO ESCOLAR JOÃO BATISTA PEREIRA;COHAB NOVA S/N;;;;;NAO_ENCONTRADO;8;80;1394;ROGERIO PEREIRA MELO;MDB;145;10.4;40.9;PRIORIDADE MÁXIMA;AGENDA IMEDIATA
ARAPIRACA;24;45;GRUPO ESCOLAR CRISPINIANO DE BRITO;RUA MANOEL LEAL S/N;-9.7587919;-36.6692525;Cacimbas;;ENCONTRADO;8;84;1266;ROGERIO PEREIRA MELO;MDB;112;8.85;40.84;PRIORIDADE MÁXIMA;AGENDA IMEDIATA
MACEIO;12;46;E.E. DOM OTAVIO BARBOSA AGUIAR;RUA A-20, S/N;-9.6057983;-35.76044;Petrópolis;;ENCONTRADO;11;44;2319;JOSE SIDERLANE ARAUJO DE MENDONCA;PL;435;18.76;40.7;PRIORIDADE ALTA;AGENDA PRIORITÁRIA
MACEIO;13;47;ESC. EST. PROF. THEONILO GAMA;RUA CORONEL PARANHOS, S/N;-9.6536179;-35.7230807;Jacintinho;;ENCONTRADO;12;48;2124;DAVID CABRAL DAVINO;PP;406;19.11;40.49;PRIORIDADE ALTA;AGENDA PRIORITÁRIA
MACEIO;14;48;E.E. ALFREDO GASPAR DE MENDONCA;CONJ. EUSTAQUIO GOMES DE MELO, S/N;;;;;NAO_ENCONTRADO;12;51;1980;LUCIANO MARINHO DA SILVA;PL;271;13.69;39.98;PRIORIDADE ALTA;AGENDA PRIORITÁRIA
MACEIO;15;49;ESCOLA DE ENS. FUND. NOSSO LAR I;RUA SAMPAIO DORIA, S/N;;;;;NAO_ENCONTRADO;16;43;1988;JOSÉ MÁRCIO DE MEDEIROS MAIA JÚNIOR;MDB;239;12.02;39.65;PRIORIDADE ALTA;AGENDA PRIORITÁRIA
MACEIO;16;50;COLÉGIO SANTA ÚRSULA;RUA PIO XII;-9.6695114;-35.7553564;Trapiche da Barra;;ENCONTRADO;14;48;1933;LEONARDO DA FONSECA DIAS;PL;272;14.07;39.62;PRIORIDADE ALTA;AGENDA PRIORITÁRIA
MACEIO;17;51;COLÉGIO TIRADENTES;AV. ROBERTO PONTES LIMA, 208,;-9.6734939;-35.7544376;Trapiche da Barra;;ENCONTRADO;14;45;2014;SILVANIA BATINGA DE OLIVEIRA BARBOSA;SOLIDARIEDADE;268;13.31;39.52;PRIORIDADE ALTA;AGENDA PRIORITÁRIA
MACEIO;18;52;CEAGB - ESCOLA ESTADUAL MOREIRA E SILVA;AV. FERNANDES LIMA, S/N;-9.6219993;-35.7387664;Gruta de Lourdes;;ENCONTRADO;17;46;1828;TEREZA NELMA PORTO VIANA SOARES;PT;115;6.29;39.48;PRIORIDADE ALTA;AGENDA PRIORITÁRIA
ARAPIRACA;25;53;GRUPO ESCOLAR ANTÔNIO CEZÁRIO DE OLIVEIRA;VILA SAÕ JOSÉ S/N;;;;;NAO_ENCONTRADO;8;50;2134;JOSÉ ALDO OLIVEIRA VEIGA;MDB;1045;48.97;39.22;PRIORIDADE ALTA;AGENDA PRIORITÁRIA
ARAPIRACA;26;54;ESCOLA DE ENSINO FUNDAMENTAL CLEONICE BARBOSA DE ALMEIDA;CONJUNTO BRISA DO LAGO - OLHO DAGUA DOS CAZUZINHO;;;;;NAO_ENCONTRADO;7;75;1410;ROGERIO PEREIRA MELO;MDB;105;7.45;39.09;PRIORIDADE ALTA;AGENDA PRIORITÁRIA
CORURIPE;2;55;ESCOLA MUNICIPAL CLAUDIO DANIEL GAMA AMORIM;RUA JOSÉ RAIMUNDO DOS SANTOS, 40;-10.118516;-36.1800084;Coruripe;;ENCONTRADO;13;34;2320;FERNANDO ALEXANDRE MAGNO SILVA VIEIRA CHAVES;MDB;234;10.09;38.75;PRIORIDADE ALTA;AGENDA PRIORITÁRIA
MACEIO;19;56;ESCOLA ESTADUAL PROFª. MARIA SALETE GUSMAO DE ARAUJO;CJ. OSMAN LOUREIRO, QD A;;;;;NAO_ENCONTRADO;11;50;1932;JOSÉ MÁRCIO DE MEDEIROS MAIA JÚNIOR;MDB;246;12.73;38.73;PRIORIDADE ALTA;AGENDA PRIORITÁRIA
ARAPIRACA;27;57;ESCOLA DE ENSINO FUNDAMENTAL ZÉLIA BARBOSA ROCHA;RUA DJALMA M. SANTANA;;;;;NAO_ENCONTRADO;8;75;1281;TULIO SAMPAIO FREIRE;SOLIDARIEDADE;123;9.6;38.33;PRIORIDADE ALTA;AGENDA PRIORITÁRIA
ARAPIRACA;28;58;GRUPO ESCOLAR ADRIANO JORGE;AV. RIO BRANCO S/N;-9.7528354;-36.6609557;Centro;;ENCONTRADO;7;83;1073;ROGERIO PEREIRA MELO;MDB;91;8.48;38.19;PRIORIDADE ALTA;AGENDA PRIORITÁRIA
MACEIO;20;59;E.E. DRA. EUNICE DE LEMOS CAMPOS;AV. GARCA TORTA, S/N;-9.5478865;-35.7196043;Benedito Bentes;;ENCONTRADO;10;42;2169;JOSE SIDERLANE ARAUJO DE MENDONCA;PL;440;20.29;38.18;PRIORIDADE ALTA;AGENDA PRIORITÁRIA
MACEIO;21;60;ESCOLA ESTADUAL ROTARY;AV. DURVAL DE GOES MONTEIRO, S/N;-9.6063446;-35.7411445;Canaã;;ENCONTRADO;13;47;1864;GALBA NOVAIS DE CASTRO NETTO;PL;255;13.68;38.17;PRIORIDADE ALTA;AGENDA PRIORITÁRIA
MACEIO;22;61;COLÉGIO DLINS;RUA PEDROSA, 225;-9.5765452;-35.7676922;Salvador Lyra;;ENCONTRADO;12;48;1874;GALBA NOVAIS DE CASTRO NETTO;PL;187;9.98;38.07;PRIORIDADE ALTA;AGENDA PRIORITÁRIA
ARAPIRACA;29;62;GRUPO ESCOLAR JOSE PEREIRA LÚCIO;POVOADO BANANEIRAS S/N;;;;;NAO_ENCONTRADO;9;57;1702;SERGIO FABIO NUNES;PP;337;19.8;37.59;PRIORIDADE ALTA;AGENDA PRIORITÁRIA
MACEIO;23;63;ESCOLA ESTADUAL PROFª MARIA DAS GRAÇAS DE SÁ TEIXEIRA;AV. GOVERNADOR LAMENHA FILHO, SN;-9.6464671;-35.7266442;Feitosa;;ENCONTRADO;12;47;1850;CLAUDIO MOREIRA DA SILVA;PL;465;25.14;37.54;PRIORIDADE ALTA;AGENDA PRIORITÁRIA
PALMEIRA DOS INDIOS;3;64;COLÉGIO SAGRADA FAMILIA;RUA DOM BOSCO 15;-9.3519004;-36.6209167;Caldeirões de Cima;;ENCONTRADO;14;35;2087;CLAUDEMIR PEREIRA DA SILVA;UNIÃO;351;16.82;37.28;PRIORIDADE ALTA;AGENDA PRIORITÁRIA
ARAPIRACA;30;65;GRUPO ESCOLAR DOMINGOS LOPES;RUA VEREADOR DOMINGOS LOPES S/N;;;;;NAO_ENCONTRADO;8;67;1406;WELLINGTON DE MAGALHAES SILVA;MDB;608;43.24;37.19;PRIORIDADE ALTA;AGENDA PRIORITÁRIA
MACEIO;24;66;ESCOLA DE ENSINO FUNDAMENTAL OCTÁVIO BRANDÃO;RUA JOSE LOBO DE MEDEIROS, S/N;-9.5770616;-35.774208;Tabuleiros dos Martins;;ENCONTRADO;15;46;1680;LUCIANO MARINHO DA SILVA;PL;207;12.32;37.07;PRIORIDADE ALTA;AGENDA PRIORITÁRIA
ARAPIRACA;31;67;ESCOLA PROFESSOR LUIZ ALBERTO DE MELO;POVOADO PAU D ARCO S/N;;;;;NAO_ENCONTRADO;8;57;1693;LEANDRO BARBOSA DE ALMEIDA;MDB;514;30.36;37.02;PRIORIDADE ALTA;AGENDA PRIORITÁRIA
ARAPIRACA;32;68;ESCOLA PEDRO SURUAGY;RUA NOSSA SENHORA DA SALETE S/N;-9.7509333;-36.6431771;Itapoã;;ENCONTRADO;7;76;1155;ROGERIO PEREIRA MELO;MDB;102;8.83;36.92;PRIORIDADE ALTA;AGENDA PRIORITÁRIA
ARAPIRACA;33;69;ESCOLA ESTADUAL DE EDUCAÇÃO BÁSICA PROF. PEDRO DE FRANÇA REIS;RUA ANTONIO MARROQUIM, 511;-9.7479462;-36.6693345;Baixão;;ENCONTRADO;6;79;1094;ROGERIO PEREIRA MELO;MDB;112;10.24;36.73;PRIORIDADE ALTA;AGENDA PRIORITÁRIA
MACEIO;25;70;E.E. ONÉLIA CAMPELO;RUA SANTA TEREZINHA, S/N;-9.5811006;-35.7879869;Clima Bom;;ENCONTRADO;10;44;1944;MARIA DE FÁTIMA GALINA FORTES FERREIRA SANTIAGO;MDB;407;20.94;36.59;PRIORIDADE ALTA;AGENDA PRIORITÁRIA
SAO MIGUEL DOS CAMPOS;1;71;ESCOLA MUNICIPAL DESEMBARGADOR JOSE FERNANDO LIMA SOUZA;RODOVIA BR 101, KM 69;-9.741431;-36.0611185;São Miguel dos Campos;;ENCONTRADO;14;30;2160;ROBSON ALFREDO DA SILVA MOURA;MDB;213;9.86;36.51;PRIORIDADE ALTA;AGENDA PRIORITÁRIA
ARAPIRACA;34;72;ESCOLA DE ENSINO FUNDAMENTAL PONTES DE MIRANDA;RUA LINO ROBERTO;-9.7361389;-36.6598115;Santa Edwiges;;ENCONTRADO;7;75;1142;ROGERIO PEREIRA MELO;MDB;155;13.57;36.5;PRIORIDADE ALTA;AGENDA PRIORITÁRIA
UNIAO DOS PALMARES;5;73;COLEGIO JOSE CORREIA VIANA;RUA SANTA MARIA MADALENA, 226;-9.1586442;-36.0310077;União dos Palmares;;ENCONTRADO;10;51;1705;GIVANILDO GOMES DA SILVA;MDB;157;9.21;36.35;PRIORIDADE ALTA;AGENDA PRIORITÁRIA
CORURIPE;3;74;ESCOLA ESTADUAL DJALMA BARROS SIQUEIRA;RUA PERNAMBUCO NOVO, S/N;;;;;NAO_ENCONTRADO;12;33;2152;GUTTENBERG BRÊDA SOBRINHO;MDB;242;11.25;36.34;PRIORIDADE ALTA;AGENDA PRIORITÁRIA
MACEIO;26;75;ESCOLA ESTADUAL DEPUTADO NENOI PINTO;RUA MUNIZ FALCAO, S/N;-9.649823;-35.7216764;Jacintinho;;ENCONTRADO;10;46;1855;JOSÉ MÁRCIO DE MEDEIROS MAIA JÚNIOR;MDB;218;11.75;36.32;PRIORIDADE ALTA;AGENDA PRIORITÁRIA
MACEIO;27;76;COLÉGIO EDSON MONTEIRO;RUA ANDRÉ PAPINE GOES, 177, LOTEAMENTO ACAUÃ;;;;;NAO_ENCONTRADO;9;48;1843;LUCIANO MARINHO DA SILVA;PL;737;39.99;36.31;PRIORIDADE ALTA;AGENDA PRIORITÁRIA
ARAPIRACA;35;77;GRUPO ESCOLAR TIBÚRCIO VALERIANO DA SILVA;RUA PRESIDENTE DUTRA S/N;-9.7442978;-36.6564083;Caititus;;ENCONTRADO;11;73;931;ROGERIO PEREIRA MELO;MDB;158;16.97;35.83;PRIORIDADE ALTA;AGENDA PRIORITÁRIA
MACEIO;28;78;ESC. EST. MIRAN MARROQUIM;RUA DA LIBERDADE, S/N - PIABAS;;;;;NAO_ENCONTRADO;12;43;1780;DAVID CABRAL DAVINO;PP;335;18.82;35.69;PRIORIDADE ALTA;AGENDA PRIORITÁRIA
MACEIO;29;79;ESC. EST. PROF. ROSALVO LÔBO;AV CASTELO BRANCO, S/N;-9.6528528;-35.7138922;Jatiúca;;ENCONTRADO;12;48;1608;KELMANN VIEIRA DE OLIVEIRA;MDB;133;8.27;35.5;PRIORIDADE ALTA;AGENDA PRIORITÁRIA
PALMEIRA DOS INDIOS;4;80;ESCOLA MUNICIPAL DOUTOR GERSON JATOBÁ LEITE;AV. BRASÍLIA, N. 39;-9.4143538;-36.6400907;Vila João XXIII;;ENCONTRADO;16;33;1862;PEDRO RODRIGUES GAIA BISNETO;MDB;202;10.85;35.49;PRIORIDADE ALTA;AGENDA PRIORITÁRIA
RIO LARGO;3;81;ESCOLA ESTADUAL SANTOS DUMONT;BR 104 - DESTACAMENTO DA FAB - VILA MILITAR;;;;;NAO_ENCONTRADO;9;56;1507;CARLOS HENRIQUE ROLIM VASCONCELOS;PP;191;12.67;35.42;PRIORIDADE ALTA;AGENDA PRIORITÁRIA
MACEIO;30;82;COLÉGIO ZUMBI DOS PALMARES;CJ ROSANE COLLOR, QD M, S/N;;;;;NAO_ENCONTRADO;10;40;1919;JOSÉ MÁRCIO DE MEDEIROS MAIA JÚNIOR;MDB;364;18.97;35.18;PRIORIDADE ALTA;AGENDA PRIORITÁRIA
RIO LARGO;4;83;ESCOLA DE ENSINO FUND DR GASTAO OITICICA;AV JULIO CALHEIROS S/N;;;;;NAO_ENCONTRADO;10;52;1550;MÁRCIO SOARES CAVALCANTE;PP;208;13.42;35.14;PRIORIDADE ALTA;AGENDA PRIORITÁRIA
MACEIO;31;84;E.M. PROFESSOR CORINTHO DA PAZ;RUA 5-A, S/N - CJ. EUSTÁQUIO GOMES DE MELO;;;;;NAO_ENCONTRADO;10;45;1760;LUCIANO MARINHO DA SILVA;PL;358;20.34;35.11;PRIORIDADE ALTA;AGENDA PRIORITÁRIA
MACEIO;32;85;ESC. EST. PROFª MARIA JOSÉ CARRASCOSA;PRACA SENHOR DO BONFIM, S/N;-9.6612532;-35.7280663;Poço;;ENCONTRADO;13;44;1626;JOSÉ MÁRCIO DE MEDEIROS MAIA JÚNIOR;MDB;260;15.99;34.99;PRIORIDADE ALTA;AGENDA PRIORITÁRIA
MACEIO;33;86;ESCOLA ESTADUAL AURELINA PALMEIRA DE MELO;PRACA PADRE CICERO, S/N;;;;;NAO_ENCONTRADO;15;39;1672;SILVANIA BATINGA DE OLIVEIRA BARBOSA;SOLIDARIEDADE;189;11.3;34.94;PRIORIDADE ALTA;AGENDA PRIORITÁRIA
ARAPIRACA;36;87;ESCOLA DE ENSINO FUNDAMENTAL JESUS REDENTOR;RUA MANÉ GARRINCHA, S/N;-9.7575074;-36.6691287;Manoel Teles;;ENCONTRADO;7;73;1034;ROGERIO PEREIRA MELO;MDB;77;7.45;34.87;PRIORIDADE ALTA;AGENDA PRIORITÁRIA
ARAPIRACA;37;88;ESCOLA DE ENSINO FUNDAMENTAL LOJA MAÇONICA;RUA JOSÉ CLOVIS R. DE BARROS;;;;;NAO_ENCONTRADO;7;70;1116;ROGERIO PEREIRA MELO;MDB;124;11.11;34.78;PRIORIDADE ALTA;AGENDA PRIORITÁRIA
SAO MIGUEL DOS CAMPOS;2;89;COLEGIO MUNICIPAL LUZINETE E LINDALVA JATOBA;AV. SAMPAIO MARQUES, S/N;;;;;NAO_ENCONTRADO;15;29;1945;JOSIVALDO JOSÉ DA SILVA;PDT;210;10.8;34.63;PRIORIDADE ALTA;AGENDA PRIORITÁRIA
ARAPIRACA;38;90;GRUPO ESCOLAR PEDRO CORREIA DAS GRAÇAS;RUA VICENTE NUNES S/N;;;;;NAO_ENCONTRADO;7;68;1160;ROGERIO PEREIRA MELO;MDB;150;12.93;34.62;PRIORIDADE ALTA;AGENDA PRIORITÁRIA
MACEIO;34;91;COLÉGIO CONTATO;RUA PROF. SILVIO DE MACEDO, 125;-9.6461711;-35.7034641;Jatiúca;;ENCONTRADO;11;49;1499;LEONARDO DA FONSECA DIAS;PL;222;14.81;34.26;PRIORIDADE ALTA;AGENDA PRIORITÁRIA
MACEIO;35;92;COLÉGIO ANCHIETA;AVENIDA ENG. PAULO BRANDAO NOGUEIRA;-9.6455234;-35.7050159;Jatiúca;;ENCONTRADO;11;49;1489;LEONARDO DA FONSECA DIAS;PL;217;14.57;34.16;PRIORIDADE ALTA;AGENDA PRIORITÁRIA
MACEIO;36;93;FACULDADE RAIMUNDO MARINHO;AVENIDA DURVAL DE GÓES MONTEIRO;-9.6063446;-35.7411445;Canaã;;ENCONTRADO;11;48;1515;GALBA NOVAIS DE CASTRO NETTO;PL;127;8.38;34.12;PRIORIDADE ALTA;AGENDA PRIORITÁRIA
RIO LARGO;5;94;ESCOLA MUNICIPAL DE EDUCACAO BASICA D PEDRO I;RUA CURITIBA S/N;-9.5105587;-35.8093743;Rio Largo;;ENCONTRADO;13;50;1340;MÁRCIO SOARES CAVALCANTE;PP;136;10.15;33.99;PRIORIDADE ALTA;AGENDA PRIORITÁRIA
MACEIO;37;95;GINÁSIO DO SESI TRAPICHE;AVENIDA SIQUEIRA CAMPOS, 1900;-9.6709012;-35.7553063;Trapiche da Barra;;ENCONTRADO;13;45;1469;KELMANN VIEIRA DE OLIVEIRA;MDB;200;13.61;33.76;PRIORIDADE ALTA;AGENDA PRIORITÁRIA
MACEIO;38;96;E.E. DEPUTADO RUBENS CANUTO;AV. GURGURI , S/N;;;;;NAO_ENCONTRADO;9;41;1765;JOSE SIDERLANE ARAUJO DE MENDONCA;PL;342;19.38;33.5;PRIORIDADE ALTA;AGENDA PRIORITÁRIA
MACEIO;39;97;E.E. JORNALISTA LAFAIETTE BELO;PARQUE RESIDENCIAL BENEDITO BENTES I, S/N;;;;;NAO_ENCONTRADO;8;45;1693;JOSE SIDERLANE ARAUJO DE MENDONCA;PL;308;18.19;33.49;PRIORIDADE ALTA;AGENDA PRIORITÁRIA
UNIAO DOS PALMARES;6;98;ESCOLA MUNICIPAL JOÃO COSTA DE OLIVEIRA;QUADRA P1, S/N;;;;;NAO_ENCONTRADO;9;54;1364;EDMILTON RODRIGUES DA SILVA;MDB;136;9.97;33.45;PRIORIDADE ALTA;AGENDA PRIORITÁRIA
MACEIO;40;99;ESCOLA EST. DR. MIGUEL GUEDES NOGUEIRA;RUA DR. OSWALDO CRUZ, S/N;-9.6214949;-35.7555418;Chã de Bebedouro;;ENCONTRADO;14;43;1441;MARCELO PALMEIRA CAVALCANTE;PL;148;10.27;33.39;PRIORIDADE ALTA;AGENDA PRIORITÁRIA
MACEIO;41;100;ESCOLA ESTADUAL DR. RODRIGUEZ DE MELO;JARDIM ESPERANCA, S/N;-9.6574902;-35.7527274;Ponta Grossa;;ENCONTRADO;11;47;1469;JOSÉ MÁRCIO DE MEDEIROS MAIA JÚNIOR;MDB;178;12.12;33.38;PRIORIDADE ALTA;AGENDA PRIORITÁRIA
MACEIO;42;101;ESCOLA ESTADUAL PROFª. IRENE GARRIDO;RUA G, QD 3, S/N, CONJ. DUBEAUX  LEAO;;;;;NAO_ENCONTRADO;9;45;1606;MARIA DE FÁTIMA GALINA FORTES FERREIRA SANTIAGO;MDB;176;10.96;33.14;PRIORIDADE ALTA;AGENDA PRIORITÁRIA
RIO LARGO;6;102;ESCOLA DE EDUCAÇÃO BÁSICA AGNUS DEI;AV. PRESIDENTE FERNANDO A. COLLO DE MELO,96, ANTONIO LINS DE SOUZA;;;;;NAO_ENCONTRADO;8;52;1436;CARLOS HENRIQUE ROLIM VASCONCELOS;PP;189;13.16;33.07;PRIORIDADE ALTA;AGENDA PRIORITÁRIA
ARAPIRACA;39;103;ANEXO ESCOLA JAYME DE ALTAVILLA;AV. MIGUEL CORREIA S/N;;;;;NAO_ENCONTRADO;5;70;1009;PABLO EMANUEL DA SILVA;PP;134;13.28;32.77;PRIORIDADE ALTA;AGENDA PRIORITÁRIA
ARAPIRACA;40;104;ESCOLA DE ENSINO FUND. EM TEMPO INTEGRAL PROF.BENILDO BARBOSA MEDEIROS;RUA ENGENHEIRO CAMILO COLLIER, S/N;-9.7672331;-36.6567112;Primavera;;ENCONTRADO;6;69;983;LEANDRO BARBOSA DE ALMEIDA;MDB;122;12.41;32.71;PRIORIDADE ALTA;AGENDA PRIORITÁRIA
MACEIO;43;105;ESC. MUN. PROF. LENILTO ALVES SANTOS;RUA ENFERMEIRO MARIANO - COHAB, S/N;;;;;NAO_ENCONTRADO;9;42;1651;DAVID CABRAL DAVINO;PP;255;15.45;32.69;PRIORIDADE ALTA;AGENDA PRIORITÁRIA
MACEIO;44;106;ESCOLA ESTADUAL PROFESSOR PEDRO TEIXEIRA;RUA PAU DARCO, S/N;;;;;NAO_ENCONTRADO;9;43;1596;CLAUDIO MOREIRA DA SILVA;PL;601;37.66;32.45;PRIORIDADE ALTA;AGENDA PRIORITÁRIA
MACEIO;45;107;E.M. PAULO HENRIQUE COSTA BANDEIRA;AV NORMA PIMENTEL DA COSTA, 11;-9.5484537;-35.7243653;Benedito Bentes;;ENCONTRADO;8;46;1551;JOSE SIDERLANE ARAUJO DE MENDONCA;PL;254;16.38;32.41;PRIORIDADE ALTA;AGENDA PRIORITÁRIA
RIO LARGO;7;108;ESCOLA MUNICIPAL DE EDUCAÇÃO BASICA INDUSTRIAL LUIGI BAUDUCCO;AVENIDA PASTOR JOSUE LINS CONJUNTO CRUZEIRO DO SUL, C RESIDENCIAL;;;;;NAO_ENCONTRADO;8;49;1447;DOUGLAS HENRIQUE DE FRANÇA COSTA;UNIÃO;193;13.34;32.29;PRIORIDADE ALTA;AGENDA PRIORITÁRIA
MACEIO;46;109;COLÉGIO ROSALVO RIBEIRO DOS SANTOS;RUA BONFIM, 344;-9.6471258;-35.7198393;Jacintinho;;ENCONTRADO;9;44;1546;DAVID CABRAL DAVINO;PP;272;17.59;32.26;PRIORIDADE ALTA;AGENDA PRIORITÁRIA
ARAPIRACA;41;110;ESCOLA DE ENSINO FUNDAMENTAL MARIA DE NAZARÉ;RUA CLAUDIO DE ALBUQUERQUE LIMA, N 2055, SÃO LUIZ;-9.7664245;-36.6509194;São Luiz;;ENCONTRADO;7;71;810;ROGERIO PEREIRA MELO;MDB;73;9.01;32.12;PRIORIDADE ALTA;AGENDA PRIORITÁRIA
MACEIO;47;111;ESCOLA DE EDUCACAO BÁSICA E PROFISSIONAL FUNDAÇÃO BRADESCO;AV. PRESIDENTE GETÚLIO VARGAS, 512;-9.6140548;-35.7298228;Serraria;;ENCONTRADO;9;46;1459;JOSÉ EDUARDO ACCIOLY CANUTO;PL;102;6.99;32.01;PRIORIDADE ALTA;AGENDA PRIORITÁRIA
PENEDO;2;112;COLÉGIO DIOCESANO DE PENEDO;PÇA. LARGO DE FÁTIMA, PX. À 9A. COORDENADORIA DE ENSINO DE ALAGOAS;;;;;NAO_ENCONTRADO;12;30;1771;IVO CARLOS MOURA COSTA;PV;206;11.63;31.78;PRIORIDADE ALTA;AGENDA PRIORITÁRIA
MACEIO;48;113;CEAGB - ESCOLA ESTADUAL PROFª LAURA DANTAS;AV. FERNANDES LIMA, S/N;-9.6219993;-35.7387664;Gruta de Lourdes;;ENCONTRADO;12;50;1153;GALBA NOVAIS DE CASTRO NETTO;PL;70;6.07;31.7;PRIORIDADE ALTA;AGENDA PRIORITÁRIA
MACEIO;49;114;E.E. MARIA IVONE SANTOS DE OLIVEIRA;RUA JOSÉ AUGUSTO LESSA, S/N - INOCOOP;-9.5459396;-35.7845544;Cidade Universitária;;ENCONTRADO;8;47;1445;LUCIANO MARINHO DA SILVA;PL;298;20.62;31.68;PRIORIDADE ALTA;AGENDA PRIORITÁRIA
MACEIO;50;115;ESCOLA ESTADUAL PROF. BENEDITA DE CASTRO LIMA;RUA SANTA RITA, S/N;-9.6470643;-35.7407984;Farol;;ENCONTRADO;9;43;1514;GALBA NOVAIS DE CASTRO NETTO;PL;171;11.29;31.66;PRIORIDADE ALTA;AGENDA PRIORITÁRIA
MACEIO;51;116;ESC. EST. DR. JOSÉ MARIA CORREIA DAS NEVES;RUA AGNELO BARBOSA, S/N;-9.6655078;-35.7494235;Prado;;ENCONTRADO;11;42;1442;JOSÉ MÁRCIO DE MEDEIROS MAIA JÚNIOR;MDB;145;10.06;31.65;PRIORIDADE ALTA;AGENDA PRIORITÁRIA
MACEIO;52;117;E.E. PROFA. MARIA LÚCIA LINS DE FREITAS;RUA 26, S/N, GRACILIANO RAMOS;-9.5464885;-35.7481581;Cidade Universitária;;ENCONTRADO;7;43;1611;LUCIANO MARINHO DA SILVA;PL;734;45.56;31.62;PRIORIDADE ALTA;AGENDA PRIORITÁRIA
PALMEIRA DOS INDIOS;5;118;ESCOLA MUNICIPAL MARCELO MINERVO DOS SANTOS PIMENTEL;AV GRACILIANO RAMOS, 246;-9.4104826;-36.6268719;São Luiz;;ENCONTRADO;14;34;1527;PEDRO RODRIGUES GAIA BISNETO;MDB;158;10.35;31.58;PRIORIDADE ALTA;AGENDA PRIORITÁRIA
MACEIO;53;119;COLÉGIO JORGE ASSUNÇÃO;AV NORMA PIMENTEL DA COSTA, 15;-9.5524705;-35.7287914;Benedito Bentes;;ENCONTRADO;7;46;1495;JOSE SIDERLANE ARAUJO DE MENDONCA;PL;275;18.39;31.38;PRIORIDADE ALTA;AGENDA PRIORITÁRIA
SAO MIGUEL DOS CAMPOS;3;120;ESCOLA MUNICIPAL RUI PALMEIRA;RUA CORONEL JOSE ANTONIO DA CRUZ, 54;-9.7817352;-36.103011;Paraíso;;ENCONTRADO;11;30;1776;DINEY SOARES TORRES NETO;MDB;246;13.85;31.34;PRIORIDADE ALTA;AGENDA PRIORITÁRIA
MACEIO;54;121;ESCOLA EST. DR. EDSON BERNARDES;CONJ. JOAQUIM LEAO, S/N;;;;;NAO_ENCONTRADO;10;42;1443;SILVANIA BATINGA DE OLIVEIRA BARBOSA;SOLIDARIEDADE;163;11.3;31.17;PRIORIDADE ALTA;AGENDA PRIORITÁRIA
DELMIRO GOUVEIA;1;122;WATSON DE GUSMAO, ESCOLA DE 1 E 2 GRAUS;RUA HENRIQUE DIAS, S/N;-9.3850082;-38.0068886;Eldorado;;ENCONTRADO;15;19;1878;EDNA GOMES BERNARDO;MDB;335;17.84;31.04;PRIORIDADE ALTA;AGENDA PRIORITÁRIA
MACEIO;55;123;E.E. PASTOR JOSE TAVARES DE SOUZA;AV. GARCA TORTA, 1286;-9.5478865;-35.7196043;Benedito Bentes;;ENCONTRADO;8;36;1711;JOSE SIDERLANE ARAUJO DE MENDONCA;PL;294;17.18;31.02;PRIORIDADE ALTA;AGENDA PRIORITÁRIA
MACEIO;56;124;ESC. EST. PROF. BENEDITO MORAES;RUA ZEFERINO RODRIGUES, S/N;-9.6685983;-35.7196822;Pajuçara;;ENCONTRADO;10;44;1363;KELMANN VIEIRA DE OLIVEIRA;MDB;224;16.43;30.98;PRIORIDADE ALTA;AGENDA PRIORITÁRIA
CORURIPE;4;125;ESCOLA MUN. EDUC. BÁSICA PROF. MARIA ROCHA SANTOS SILVA;TRAVESSA FLAMENGO, 182, QUADRA S;;;;;NAO_ENCONTRADO;10;27;1858;DALMO PORTO SOUZA;PSB;543;29.22;30.76;PRIORIDADE ALTA;AGENDA PRIORITÁRIA
MACEIO;57;126;E.E. PROFA. GILVANA ATAÍDE CAVALCANTE CABRAL;RUA ELINELMA DE OLIVEIRA SANTOS, S/N;;;;;NAO_ENCONTRADO;7;45;1456;FRANCISCO HOLANDA COSTA FILHO;PL;301;20.67;30.71;PRIORIDADE ALTA;AGENDA PRIORITÁRIA
SAO MIGUEL DOS CAMPOS;4;127;ESCOLA MUNICIPAL PROFESSORA INEIDE NOGUEIRA ROCHA;RUA ALÍCIA VITÓRIA URBANO DE OLIVEIRA LOPES, QUADRA O1, S/N;;;;;NAO_ENCONTRADO;11;28;1749;ROBSON ALFREDO DA SILVA MOURA;MDB;158;9.03;30.49;PRIORIDADE ALTA;AGENDA PRIORITÁRIA
ARAPIRACA;42;128;ESCOLA LINDAUVA EULÁLIA DE FARIAS;POVOADO BAIXA GRANDE DE DENTRO;;;;;NAO_ENCONTRADO;5;58;1130;MARCIO JOSE DA SILVA;MDB;158;13.98;30.41;PRIORIDADE ALTA;AGENDA PRIORITÁRIA
MACEIO;58;129;COLÉGIO INTENSIVO;LARGO DA VITÓRIA, 215;;;;;NAO_ENCONTRADO;10;48;1161;KELMANN VIEIRA DE OLIVEIRA;MDB;108;9.3;30.21;PRIORIDADE ALTA;AGENDA PRIORITÁRIA
MACEIO;59;130;CENTRO UNIVERSITÁRIO MÁRIO PONTES JUCÁ - UMJ (ANTIGA FAPEC/CET);AV. MUNIZ FALCÃO, 1200;-9.5722734;-35.7752038;Tabuleiros dos Martins;;ENCONTRADO;9;52;1089;ALDO ROBERTO DA ROCHA LOUREIRO;PDT;134;12.3;30.2;PRIORIDADE ALTA;AGENDA PRIORITÁRIA
SAO MIGUEL DOS CAMPOS;5;131;ESCOLA ANA LINS;RUA SENADOR MAXIMO, 130;-9.7797751;-36.0993035;Centro;;ENCONTRADO;10;28;1769;JOSIVALDO JOSÉ DA SILVA;PDT;203;11.48;30.2;PRIORIDADE ALTA;AGENDA PRIORITÁRIA
MACEIO;60;132;E.M. PROF. AURÉLIO BUARQUE DE HOLANDA FERREIRA;RUA F, S/N, CONJUNTO FREITAS NETO;;;;;NAO_ENCONTRADO;8;43;1408;ALLAN PIERRE VASCONCELOS;MDB;178;12.64;30.15;PRIORIDADE ALTA;AGENDA PRIORITÁRIA
MACEIO;61;133;CEAGB - ESCOLA ESTADUAL PRINCESA IZABEL;AV. FERNANDES LIMA, S/N;-9.6219993;-35.7387664;Gruta de Lourdes;;ENCONTRADO;10;47;1181;LEONARDO DA FONSECA DIAS;PL;79;6.69;30.11;PRIORIDADE ALTA;AGENDA PRIORITÁRIA
MACEIO;62;134;UNEAL - UNIVERSIDADE ESTADUAL DE ALAGOAS - CAMPUS VI;RUA PEDRO AMÉRICO, S/N, POÇO;-9.6604028;-35.722663;Poço;;ENCONTRADO;10;47;1167;KELMANN VIEIRA DE OLIVEIRA;MDB;97;8.31;29.97;PRIORIDADE ALTA;AGENDA PRIORITÁRIA
MARECHAL DEODORO;1;135;ESCOLA ESTADUAL ROSA MARIA PAULINA DA FONSECA;AV SÃO JOSÉ SN;-9.7102397;-35.8959836;Centro;;ENCONTRADO;11;30;1631;THIAGO HENRIQUE GONDIN TORRES;PDT;203;12.45;29.94;PRIORIDADE NORMAL;AGENDA RECOMENDADA
MACEIO;63;136;IFAL - CAMPUS BENEDITO BENTES;AVENIDA BENEDITO BENTES, S/N;-9.5488075;-35.7318894;Benedito Bentes;;ENCONTRADO;7;45;1369;JOSE SIDERLANE ARAUJO DE MENDONCA;PL;158;11.54;29.87;PRIORIDADE NORMAL;AGENDA RECOMENDADA
MACEIO;64;137;ESCOLA EST. JORNALISTA FREITAS NETO;RUA DR. OSWALDO CRUZ, 150;-9.6214949;-35.7555418;Chã de Bebedouro;;ENCONTRADO;13;40;1217;MARCELO PALMEIRA CAVALCANTE;PL;126;10.35;29.86;PRIORIDADE NORMAL;AGENDA RECOMENDADA
RIO LARGO;8;138;GRUPO ESCOLAR DE I E II GRAUS FERNANDINA MALTA;AV ALBERTO SANTOS DUMONT, S/N;-9.4835249;-35.855917;Vila São Lourenço;;ENCONTRADO;7;50;1207;MÁRCIO SOARES CAVALCANTE;PP;127;10.52;29.78;PRIORIDADE NORMAL;AGENDA RECOMENDADA
MACEIO;65;139;ESCOLA ESTADUAL PADRE CABRAL;PRACA EDUARDO SANTOS, S/N;-9.590352;-35.783877;Fernão Velho;;ENCONTRADO;8;36;1572;MILTON LUNA BARROS NETO;PSB;311;19.78;29.67;PRIORIDADE NORMAL;AGENDA RECOMENDADA
MACEIO;66;140;E.M. MARIA CARMELITA CARDOSO GAMA (CAIC-UFAL);BR 104, 1099 KM 14 - CAMPUS A.C.SIMOES;;;;;NAO_ENCONTRADO;8;38;1506;LUCIANO MARINHO DA SILVA;PL;306;20.32;29.62;PRIORIDADE NORMAL;AGENDA RECOMENDADA
RIO LARGO;9;141;ESCOLA DE ENS FUND PROFESSORA EVANDA CARNEIRO DE VASCONCELOS;RUA SAO PEDRO S/N;-9.4784995;-35.8366035;Mata do Rolo;;ENCONTRADO;9;46;1206;IZAQUE PEREIRA SILVA;AVANTE;151;12.52;29.57;PRIORIDADE NORMAL;AGENDA RECOMENDADA
MACEIO;67;142;ESCOLA ESTADUAL PROFESSOR SEBASTIÃO DA HORA;RUA MARTINS MURTA, S/N;-9.6389436;-35.7308548;Pitanguinha;;ENCONTRADO;10;42;1270;CLAUDIO MOREIRA DA SILVA;PL;271;21.34;29.5;PRIORIDADE NORMAL;AGENDA RECOMENDADA
ARAPIRACA;43;143;ESCOLA DE ENSINO FUNDAMENTAL WALTER BEZERRA;RUA CLAUDIO DE ALBUQUERQUE LIMA, N 409, OURO PRETO;-9.7621649;-36.6545352;Ouro Preto;;ENCONTRADO;6;69;649;ROGERIO PEREIRA MELO;MDB;60;9.24;29.49;PRIORIDADE NORMAL;MONITORAMENTO
PALMEIRA DOS INDIOS;6;144;FACULDADE CESMAC DO SERTÃO;RUA BRAÚLIO MONTENEGRO, S/N, VILA MARIA;;;;;NAO_ENCONTRADO;10;34;1505;PEDRO RODRIGUES GAIA BISNETO;MDB;157;10.43;29.41;PRIORIDADE NORMAL;AGENDA RECOMENDADA
MACEIO;68;145;ESCOLA DE ENSINO FUNDAMENTAL PROF. DONIZETTI CALHEIROS;AV. UBERABA, S/N;;;;;NAO_ENCONTRADO;8;42;1351;BRIVALDO MARQUES SILVA NETO;PL;200;14.8;29.3;PRIORIDADE NORMAL;AGENDA RECOMENDADA
MARECHAL DEODORO;2;146;ESCOLA MUNICIPAL GOVERNADOR LUIZ CAVALCANTE;RODOVIA EDVAL LEMOS;-9.7585568;-35.8685101;Vila Cabreiras;;ENCONTRADO;11;31;1530;NILSON DO NASCIMENTO SANTOS;PSB;186;12.16;29.26;PRIORIDADE NORMAL;AGENDA RECOMENDADA
MACEIO;69;147;ESC. MUN. ARNON AFFONSO FARIAS DE MELLO;CONJ. JOSE DA SILVA PEIXOTO, S/N;;;;;NAO_ENCONTRADO;9;40;1347;DAVID CABRAL DAVINO;PP;240;17.82;29.16;PRIORIDADE NORMAL;AGENDA RECOMENDADA
ARAPIRACA;44;148;ESCOLA DE ENSINO FUNDAMENTAL VOLUNTÁRIA MARIA DAS NEVES BORGES;RUA SINÉSIO FERREIRA LIMA, N 383, OURO PRETO;;;;;NAO_ENCONTRADO;5;71;595;ROGERIO PEREIRA MELO;MDB;58;9.75;29.07;PRIORIDADE NORMAL;MONITORAMENTO
MACEIO;70;149;ESC. MUN. KÁTIA PIMENTEL ASSUNÇÃO;RUA BRENO CANSANCAO, 788;-9.6375976;-35.717939;Jacintinho;;ENCONTRADO;8;42;1327;DAVID CABRAL DAVINO;PP;240;18.09;29.07;PRIORIDADE NORMAL;AGENDA RECOMENDADA
MACEIO;71;150;E.M. MARIA DE LOURDES DE MELO PIMENTEL;RUA PADRE CÍCERO, 05, VILAGE CAMPESTE II;;;;;NAO_ENCONTRADO;6;43;1386;LUCIANO MARINHO DA SILVA;PL;735;53.03;28.96;PRIORIDADE NORMAL;AGENDA RECOMENDADA
MACEIO;72;151;ESC. EST. PROF. THEOTÔNIO VILELA BRANDÃO;RUA ADAUTO GOMES BARBOSA, SN - SANTO EDUARDO;;;;;NAO_ENCONTRADO;10;45;1123;KELMANN VIEIRA DE OLIVEIRA;MDB;121;10.77;28.96;PRIORIDADE NORMAL;AGENDA RECOMENDADA
RIO LARGO;10;152;ESCOLA DE ENSINO FUND PROF ROSINEIDE TEREZA MARTINS DA CONCEIÇÃO;EUCLIDES AFONSO DE MELO S/N;;;;;NAO_ENCONTRADO;7;47;1209;MÁRCIO SOARES CAVALCANTE;PP;171;14.14;28.91;PRIORIDADE NORMAL;AGENDA RECOMENDADA
MACEIO;73;153;COLÉGIO SANTÍSSIMO SENHOR;LOTEAMENTO BRISA DA SERRARIA, 302 - CONJ. JOSÉ TENÓRIO;;;;;NAO_ENCONTRADO;8;45;1214;TEREZA NELMA PORTO VIANA SOARES;PT;104;8.57;28.86;PRIORIDADE NORMAL;AGENDA RECOMENDADA
UNIAO DOS PALMARES;7;154;GRUPO ESCOLAR DR JORGE DE LIMA;RUA TAVARES BASTOS, SN;-9.157438;-36.0311805;União dos Palmares;;ENCONTRADO;7;47;1192;ALMIR BELARMINO DA SILVA;PDT;102;8.56;28.75;PRIORIDADE NORMAL;AGENDA RECOMENDADA
MACEIO;74;155;ESC. MUN. PROFª EULINA RIBEIRO ALENCAR;RUA COARACI FONSECA, 01;;;;;NAO_ENCONTRADO;8;39;1366;DAVID CABRAL DAVINO;PP;247;18.08;28.57;PRIORIDADE NORMAL;AGENDA RECOMENDADA
RIO LARGO;11;156;ESCOLA MUNICIPAL TERESA CRISTINA LINS DE SOUZA COSTA;CJ RES. FRANCISCO TAVARES GRANJA, S/N;;;;;NAO_ENCONTRADO;8;50;1025;MÁRCIO SOARES CAVALCANTE;PP;103;10.05;28.51;PRIORIDADE NORMAL;AGENDA RECOMENDADA
UNIAO DOS PALMARES;8;157;ESCOLA ESTADUAL ROCHA CAVALCANTE;RUA CORREIA DE OLIVEIRA 200;-9.1588289;-36.0341446;União dos Palmares;;ENCONTRADO;7;44;1258;GUSTAVO THADEU PAULINO PEDROZA;PDT;96;7.63;28.51;PRIORIDADE NORMAL;AGENDA RECOMENDADA
MACEIO;75;158;ESCOLA ESTADUAL GUIOMAR DE ALMEIDA PEIXOTO;RUA SANTO ANTONIO, 600;-9.635066;-35.746385;Pinheiro;;ENCONTRADO;10;40;1225;SILVANIA BATINGA DE OLIVEIRA BARBOSA;SOLIDARIEDADE;157;12.82;28.47;PRIORIDADE NORMAL;AGENDA RECOMENDADA
RIO LARGO;12;159;GRUPO ESCOLAR MANOEL SOARES DE SOUZA;VILA RAUL S/N;;;;;NAO_ENCONTRADO;8;46;1134;MÁRCIO SOARES CAVALCANTE;PP;109;9.61;28.38;PRIORIDADE NORMAL;AGENDA RECOMENDADA
ARAPIRACA;45;160;ESCOLAR ANA BERNARDES SILVEIRA;SERRA DOS FERREIRA S/N;;;;;NAO_ENCONTRADO;6;49;1142;JOSÉ ALDO OLIVEIRA VEIGA;MDB;249;21.8;28.37;PRIORIDADE NORMAL;AGENDA RECOMENDADA
RIO LARGO;13;161;ESCOLA PREFEITO WALTER DORIA DE FIGUEIREDO;CJ MARIO MAFRA, QUADRA D-04;;;;;NAO_ENCONTRADO;6;48;1169;DOUGLAS HENRIQUE DE FRANÇA COSTA;UNIÃO;153;13.09;28.33;PRIORIDADE NORMAL;AGENDA RECOMENDADA
UNIAO DOS PALMARES;9;162;EDUCANDARIO OLIMPYA AUGUSTA DOS SANTOS;RUA CORONEL JOSE BEZERRA MONTENEGRO, 105;-9.1609031;-36.0318218;União dos Palmares;;ENCONTRADO;8;43;1212;GIVANILDO GOMES DA SILVA;MDB;98;8.09;28.26;PRIORIDADE NORMAL;AGENDA RECOMENDADA
MACEIO;76;163;ESC. DE ENS. FUND. PROF. PEDRO CAFÉ;RUA DO CRAVO, S/N;-9.5960352;-35.7409551;Jardim Petrópolis;;ENCONTRADO;8;36;1413;JOSÉ MÁRCIO DE MEDEIROS MAIA JÚNIOR;MDB;388;27.46;28.14;PRIORIDADE NORMAL;AGENDA RECOMENDADA
MACEIO;77;164;ESCOLA MONTEIRO LOBATO;RUA DO IPÊ ROXO, 291;;;;;NAO_ENCONTRADO;8;41;1252;MILTON LUNA BARROS NETO;PSB;139;11.1;28.05;PRIORIDADE NORMAL;AGENDA RECOMENDADA
MACEIO;78;165;COLÉGIO MARISTA DE MACEIO;AV DOM ANTÔNIO BRANDÃO, 564;-9.6587237;-35.7320324;Centro;;ENCONTRADO;9;44;1109;LEONARDO DA FONSECA DIAS;PL;145;13.07;28.04;PRIORIDADE NORMAL;AGENDA RECOMENDADA
MACEIO;79;166;E.M. PROFA. HÉVIA VALÉRIA MAIA AMORIM;AV JOSÉ AILTON DOS SANTOS, S/N, VILAGE CAMPESTRE I;;;;;NAO_ENCONTRADO;6;41;1334;LUCIANO MARINHO DA SILVA;PL;641;48.05;27.87;PRIORIDADE NORMAL;AGENDA RECOMENDADA
DELMIRO GOUVEIA;2;167;VIRGILIA BEZERRA,ESCOLA DE 1 E 2 GRAUS PROFESSORA;AV MASCARENHAS DE MORAIS S/N;;;;;NAO_ENCONTRADO;12;17;1741;FABIOLA MARQUES DE LIMA;MDB;258;14.82;27.67;PRIORIDADE NORMAL;AGENDA RECOMENDADA
MACEIO;80;168;ESC. MUN. ANTÔNIO SEMEÃO LAMENHA LINS;RUA MAJOR JOAQUIM CALHEIROS, S/N;;;;;NAO_ENCONTRADO;8;41;1211;DAVID CABRAL DAVINO;PP;204;16.85;27.66;PRIORIDADE NORMAL;AGENDA RECOMENDADA
MACEIO;81;169;COLÉGIO MARIA MONTESSORI;RUA PAPA JOÃO PAULO 30;;;;;NAO_ENCONTRADO;9;44;1060;LEONARDO DA FONSECA DIAS;PL;141;13.3;27.57;PRIORIDADE NORMAL;AGENDA RECOMENDADA
MACEIO;82;170;ESCOLA DE ENSINO FUNDAMENTAL LUÍZA OLIVEIRA SURUAGY;RUA PADRE CÍCERO, S/N;-9.5616951;-35.739975;Antares;;ENCONTRADO;7;39;1310;MILTON LUNA BARROS NETO;PSB;280;21.37;27.54;PRIORIDADE NORMAL;AGENDA RECOMENDADA
ARAPIRACA;46;171;GRUPO ESCOLAR CÔNEGO EPITÁCIO RODRIGUES;VILA SAO FRANCISCO;;;;;NAO_ENCONTRADO;5;40;1380;SERGIO FABIO NUNES;PP;657;47.61;27.53;PRIORIDADE NORMAL;AGENDA RECOMENDADA
MACEIO;83;172;ESC. EST. MANOEL SIMPLICIO DO NASCIMENTO;RUA DIVISORIA FEICAO, S/N;;;;;NAO_ENCONTRADO;8;41;1185;DAVID CABRAL DAVINO;PP;240;20.25;27.41;PRIORIDADE NORMAL;AGENDA RECOMENDADA
SAO MIGUEL DOS CAMPOS;6;173;ESCOLA MUNICIPAL MARIA ROSA;RUA GERALDO SAMPAIO, S/N;-9.7779609;-36.1043243;Paraíso;;ENCONTRADO;9;30;1469;JOSIVALDO JOSÉ DA SILVA;PDT;160;10.89;27.4;PRIORIDADE NORMAL;AGENDA RECOMENDADA
CORURIPE;5;174;ESCOLA MUNICIPAL SANTA SOFIA;RUA DA CAIXA DAGUA - POVOADO BOTAFOGO;;;;;NAO_ENCONTRADO;10;24;1592;DALMO PORTO SOUZA;PSB;324;20.35;27.31;PRIORIDADE NORMAL;AGENDA RECOMENDADA
MACEIO;84;175;ESCOLA ESTADUAL PROF. REMI LIMA;RUA SAO JOSE, S/N;-9.6364716;-35.7291049;Pitanguinha;;ENCONTRADO;6;45;1149;GALBA NOVAIS DE CASTRO NETTO;PL;122;10.62;27.26;PRIORIDADE NORMAL;AGENDA RECOMENDADA
CORURIPE;6;176;ESCOLA ESTADUAL DEPUTADO JOÃO BELTRÃO;AV. ANFRÍSIO DE CASTRO LESSA SANTOS, 506;;;;;NAO_ENCONTRADO;8;32;1431;GUTTENBERG BRÊDA SOBRINHO;MDB;131;9.15;27.13;PRIORIDADE NORMAL;AGENDA RECOMENDADA
MACEIO;85;177;E.M. TRADUTOR JOÃO SAMPAIO;PRAÇA CENTRAL, S/N, CONJ. JOÃO SAMPAIO I;;;;;NAO_ENCONTRADO;6;45;1134;DAVID CABRAL DAVINO;PP;94;8.29;27.11;PRIORIDADE NORMAL;AGENDA RECOMENDADA
PENEDO;3;178;ESCOLA MUNICIPAL VEREADOR MANOEL SOARES DE MELO;RUA FLORIANO ROSA, S/N, PX. AO POSTO DE SAÚDE, CONJUNTO VILA MATIAS;;;;;NAO_ENCONTRADO;12;28;1347;JORGE ALVES DA SILVA;MDB;147;10.91;27.1;PRIORIDADE NORMAL;AGENDA RECOMENDADA
MACEIO;86;179;ESC. EST. CAMPOS TEIXEIRA;RUA LUIZ CAMPOS TEIXEIRA, S/N;-9.6609401;-35.7088445;Ponta Verde;;ENCONTRADO;7;45;1073;KELMANN VIEIRA DE OLIVEIRA;MDB;175;16.31;27.01;PRIORIDADE NORMAL;AGENDA RECOMENDADA
MACEIO;87;180;ESC. MUN. DR. BALTAZAR DE MENDONÇA;RUA DIVISORIA FEICAO, S/N;;;;;NAO_ENCONTRADO;8;41;1129;DAVID CABRAL DAVINO;PP;228;20.19;26.87;PRIORIDADE NORMAL;AGENDA RECOMENDADA
MACEIO;88;181;ESC. MUN. PADRE PINHO;RUA QUEBRANGULO, S/N;-9.6045569;-35.7366674;Canaã;;ENCONTRADO;8;43;1068;KELMANN VIEIRA DE OLIVEIRA;MDB;100;9.36;26.86;PRIORIDADE NORMAL;AGENDA RECOMENDADA
MACEIO;89;182;E.M. MARIA CECILIA PONTES CARNAÚBA;AV. SERGIO LUIS PESSOA BRAGA, S/N;-9.5790961;-35.7376472;Antares;;ENCONTRADO;6;43;1155;OLÍVIA COIMBRA TENÓRIO VILAÇA;PP;113;9.78;26.73;PRIORIDADE NORMAL;AGENDA RECOMENDADA
MACEIO;90;183;ESCOLA ESTADUAL OVIDIO EDGAR DE ALBUQUERQUE;RUA DO CAMPO, S/N;-9.6200657;-35.6940737;Jacarecica;;ENCONTRADO;7;40;1195;JOSÉ MÁRCIO DE MEDEIROS MAIA JÚNIOR;MDB;157;13.14;26.72;PRIORIDADE NORMAL;AGENDA RECOMENDADA
MACEIO;91;184;EDIFÍCIO DO SESC;RUA PEDRO PAULINO, 40;-9.6637312;-35.7279416;Poço;;ENCONTRADO;7;48;948;DAVID CABRAL DAVINO;PP;109;11.5;26.69;PRIORIDADE NORMAL;MONITORAMENTO
MACEIO;92;185;ESC. EST. PROF. EDUARDO DA MOTA TRIGUEIROS;RUA ADAUTO GOMES BARBOSA, S/N - SANTO EDUARDO;;;;;NAO_ENCONTRADO;9;41;1055;KELMANN VIEIRA DE OLIVEIRA;MDB;134;12.7;26.64;PRIORIDADE NORMAL;AGENDA RECOMENDADA
RIO LARGO;14;186;ESCOLA DE ENSINO FUNDAMENTAL MARIETA LEÃO;PATIO DA REDE FERROVIARIA S/N;;;;;NAO_ENCONTRADO;10;43;941;ALINE BIANA CAVALCANTE;UNIÃO;105;11.16;26.61;PRIORIDADE NORMAL;MONITORAMENTO
MACEIO;93;187;ESCOLA ESTADUAL JOSEFA DA CONCEIÇÃO COSTA;RUA PÃO DE AÇÚCAR, S/N;-9.6050835;-35.7379368;Canaã;;ENCONTRADO;7;41;1128;MILTON LUNA BARROS NETO;PSB;300;26.6;26.37;PRIORIDADE NORMAL;AGENDA RECOMENDADA
RIO LARGO;15;188;ESCOLA MUNICIPAL DE ENSINO F. PROFESSOR JOSÉ EDMILSON;COJ NAPOLEÃO VIANA,S/N, BAR NOSSO, PREF  ANTONIO LINS DE SOUZA;;;;;NAO_ENCONTRADO;7;50;852;ALINE BIANA CAVALCANTE;UNIÃO;96;11.27;26.35;PRIORIDADE NORMAL;MONITORAMENTO
MARECHAL DEODORO;3;189;INSTITUTO FEDERAL DE ALAGOAS IF/AL;RUA LOURIVAL ALFREDO N 176;-9.7129729;-35.8940606;Centro;;ENCONTRADO;10;29;1339;EVERALDO PEREIRA LOPES JUNIOR;PSB;170;12.7;26.34;PRIORIDADE NORMAL;AGENDA RECOMENDADA
PALMEIRA DOS INDIOS;7;190;GRUPO ESCOLAR GRACILIANO RAMOS;RUA 15 DE NOVEMBRO SN ;-9.4166956;-36.6362459;São Cristovão;;ENCONTRADO;9;36;1176;MAXWELL ROCHA FEITOSA;MDB;125;10.63;26.34;PRIORIDADE NORMAL;AGENDA RECOMENDADA
MACEIO;94;191;COLÉGIO SANTÍSSIMA TRINDADE;AV PRESIDENTE ROOSEVELT 1111;-9.6157912;-35.7152195;Barro Duro;;ENCONTRADO;6;47;982;ALDO ROBERTO DA ROCHA LOUREIRO;PDT;77;7.84;26.23;PRIORIDADE NORMAL;MONITORAMENTO
MACEIO;95;192;ESCOLA MUN. SILVESTRE PÉRICLES;PRAÇA DR CAIO DE AGUIAR PORTO S/N - PONTAL DA BARRA;;;;;NAO_ENCONTRADO;7;34;1322;MILTON LUNA BARROS NETO;PSB;641;48.49;26.18;PRIORIDADE NORMAL;AGENDA RECOMENDADA
MACEIO;96;193;E.M. DOUTORA NISE DA SILVEIRA;AV. SÉRGIO LUÍS PESSOA BRAGA, 454;-9.5790961;-35.7376472;Antares;;ENCONTRADO;6;43;1094;BRIVALDO MARQUES SILVA NETO;PL;141;12.89;26.14;PRIORIDADE NORMAL;AGENDA RECOMENDADA
MACEIO;97;194;SECRETARIA MUNICIPAL DE EDUCACAO;RUA GENERAL HERMES, 1199;-9.6493509;-35.7429598;Bom Parto;;ENCONTRADO;8;42;1021;MARCELO PALMEIRA CAVALCANTE;PL;206;20.18;26.12;PRIORIDADE NORMAL;AGENDA RECOMENDADA
MACEIO;98;195;COLÉGIO OLAVO BILAC;AV. GOVERNADOR LAMENHA FILHO, S/N;-9.6472121;-35.7266209;Feitosa;;ENCONTRADO;7;39;1157;CLAUDIO MOREIRA DA SILVA;PL;427;36.91;26.06;PRIORIDADE NORMAL;AGENDA RECOMENDADA
MACEIO;99;196;ESCOLA MUNICIPAL PROFESSORA JAREDE VIANA DE OLIVEIRA;RUA SÃO JOSÉ, S/N, AO LADO DA ESCOLA MUNICIPAL TOBIAS GRANJA;;;;;NAO_ENCONTRADO;6;42;1101;GALBA NOVAIS DE CASTRO NETTO;PL;123;11.17;25.91;PRIORIDADE NORMAL;AGENDA RECOMENDADA
MACEIO;100;197;E.E. MARCOS ANTONIO CAVALCANTI SILVA;AV. ANTONIO LISBOA DE AMORIM S/N;-9.5466799;-35.7330158;Benedito Bentes;;ENCONTRADO;6;40;1146;JOSE SIDERLANE ARAUJO DE MENDONCA;PL;161;14.05;25.76;PRIORIDADE NORMAL;AGENDA RECOMENDADA
MACEIO;101;198;ESCOLA DE ENSINO FUNDAMENTAL DR. POMPEU SARMENTO;AV. DR. MUNIZ FALCAO, S/N;-9.641425;-35.7433313;Pinheiro;;ENCONTRADO;7;41;1057;ALDO ROBERTO DA ROCHA LOUREIRO;PDT;146;13.81;25.68;PRIORIDADE NORMAL;AGENDA RECOMENDADA
MACEIO;102;199;ESC. MUN. DR. ORLANDO ARAÚJO;RUA DR. JOSE SAMPAIO LUZ, S/N;;;;;NAO_ENCONTRADO;8;40;1019;LEONARDO DA FONSECA DIAS;PL;160;15.7;25.51;PRIORIDADE NORMAL;AGENDA RECOMENDADA
RIO LARGO;16;200;GRUPO ESCOLAR OZORIA MOURA DE LIMA;RUA  ANTONIO ELIAS CALHEIROS S/N;;;;;NAO_ENCONTRADO;5;45;1017;JOSE CARLOS REIS DOS SANTOS FILHO;PP;206;20.26;25.5;PRIORIDADE NORMAL;AGENDA RECOMENDADA
SAO MIGUEL DOS CAMPOS;7;201;ESCOLA MUNICIPAL MARIO SOARES PALMEIRA;RUA VISCONDE DE SINIMBU, 32;;;;;NAO_ENCONTRADO;11;29;1196;DINEY SOARES TORRES NETO;MDB;153;12.79;25.45;PRIORIDADE NORMAL;AGENDA RECOMENDADA
MACEIO;103;202;CEAGB - ESCOLA ESTADUAL PROFª  MARIA JOSÉ LOUREIRO;AV. FERNANDES LIMA, S/N;-9.6219993;-35.7387664;Gruta de Lourdes;;ENCONTRADO;7;49;765;TEREZA NELMA PORTO VIANA SOARES;PT;57;7.45;25.21;PRIORIDADE NORMAL;MONITORAMENTO
MACEIO;104;203;COLÉGIO INTEGRADO (ANTIGO SAGRADINHA/ PRAÇA DAS GRAÇAS);RUA 16 DE SETEMBRO , 241;-9.6632893;-35.7451579;Levada;;ENCONTRADO;7;38;1099;JOSÉ MÁRCIO DE MEDEIROS MAIA JÚNIOR;MDB;170;15.47;25.21;PRIORIDADE NORMAL;AGENDA RECOMENDADA
MACEIO;105;204;ESCOLA PROF. RANILSON FRANÇA;RUA PROF MARIO BROAD, 36;-9.6587671;-35.7502437;Ponta Grossa;;ENCONTRADO;8;39;1014;JONATAS JOSE OLIVEIRA DE OMENA;PL;112;11.05;25.17;PRIORIDADE NORMAL;AGENDA RECOMENDADA
MACEIO;106;205;E.M. MANOEL PEDRO DOS SANTOS;AV. LOURIVAL MELO MOTA, S/N;-9.5508817;-35.7851439;Cidade Universitária;;ENCONTRADO;6;37;1175;LUCIANO MARINHO DA SILVA;PL;168;14.3;25.16;PRIORIDADE NORMAL;AGENDA RECOMENDADA
PALMEIRA DOS INDIOS;8;206;GRUPO ESCOLAR ALMEIDA CAVALCANTE;RUA DUQUE DE CAXIAS SN;-9.4078129;-36.629182;Centro;;ENCONTRADO;8;33;1182;CLAUDEMIR PEREIRA DA SILVA;UNIÃO;136;11.51;25.02;PRIORIDADE NORMAL;AGENDA RECOMENDADA
MACEIO;107;207;ESCOLA DE ENSINO FUNDAMENTAL DOM ANTONIO BRANDAO;RUA DO QUADRO, S/N;-9.5807594;-35.7717359;Tabuleiros dos Martins;;ENCONTRADO;7;40;1002;GALBA NOVAIS DE CASTRO NETTO;PL;169;16.87;24.86;PRIORIDADE NORMAL;AGENDA RECOMENDADA
MACEIO;108;208;ESC. DE ENS. FUND. PROF. ALMEIDA LEITE;RUA DR. VIRGILIO GUEDES, S/N;;;;;NAO_ENCONTRADO;6;41;1014;SILVANIA BATINGA DE OLIVEIRA BARBOSA;SOLIDARIEDADE;138;13.61;24.78;PRIORIDADE NORMAL;AGENDA RECOMENDADA
MARECHAL DEODORO;4;209;ESCOLA ESTADUAL JOSÉ CORREIA DA SILVA TITARA;LOT BOSQUE DA MASSAGUEIRA N 3A;;;;;NAO_ENCONTRADO;9;31;1166;GILBERTO MEDEIROS SILVA;PDT;193;16.55;24.77;PRIORIDADE NORMAL;AGENDA RECOMENDADA
MACEIO;109;210;ESCOLA DE ENS. FUND. RUI PALMEIRA;AV MONTE CASTELO, S/N;-9.6561576;-35.756673;Vergel do Lago;;ENCONTRADO;7;39;1016;JONATAS JOSE OLIVEIRA DE OMENA;PL;102;10.04;24.7;PRIORIDADE NORMAL;AGENDA RECOMENDADA
MACEIO;110;211;ESCOLA EST. PROFª ANAIAS DE LIMA ANDRADE;RUA BELO HORIZONTE, S/N;-9.5521408;-35.7303393;Benedito Bentes;;ENCONTRADO;9;39;902;JONATAS JOSE OLIVEIRA DE OMENA;PL;72;7.98;24.57;PRIORIDADE NORMAL;MONITORAMENTO
MACEIO;111;212;CENTRO DE ENSINO SANTA JULIANA;AV DURVAL DE GOES MONTEIRO, 2345, C67P, CM;;;;;NAO_ENCONTRADO;7;41;941;LUCIANO MARINHO DA SILVA;PL;82;8.71;24.56;PRIORIDADE NORMAL;MONITORAMENTO
PENEDO;4;213;SESI - SENAI / UNIDADE PENEDO;AV. WANDERLEY, 922;-10.2822946;-36.5653561;Dom Constatino;;ENCONTRADO;11;25;1226;IVO CARLOS MOURA COSTA;PV;97;7.91;24.56;PRIORIDADE NORMAL;AGENDA RECOMENDADA
PALMEIRA DOS INDIOS;9;214;ESCOLA DE 1 GRAU ESTADO DE NOVA GERSEY;RUA SEBASTIÃO LIMA SN;-9.4134008;-36.6281836;São Luiz;;ENCONTRADO;8;33;1128;PEDRO RODRIGUES GAIA BISNETO;MDB;120;10.64;24.5;PRIORIDADE NORMAL;AGENDA RECOMENDADA
MACEIO;112;215;COLÉGIO ADVENTISTA DE MACEIÓ;AV JUCA SAMPAIO 3027;-9.6349606;-35.7085167;Jacintinho;;ENCONTRADO;6;42;953;CLAUDIO MOREIRA DA SILVA;PL;112;11.75;24.48;PRIORIDADE NORMAL;MONITORAMENTO
MACEIO;113;216;ESC. MUN. JOÃO XXIII;RUA DR.JOSE JOAQUIM DE ARAUJO, S/N;;;;;NAO_ENCONTRADO;6;43;916;DAVID CABRAL DAVINO;PP;165;18.01;24.42;PRIORIDADE NORMAL;MONITORAMENTO
MACEIO;114;217;ESCOLA DE ENSINO FUNDAMENTAL CLETO MARQUES LUZ;RUA P, LOT COLINA DOS EUCALIPTOS;;;;;NAO_ENCONTRADO;6;44;882;GALBA NOVAIS DE CASTRO NETTO;PL;100;11.34;24.39;PRIORIDADE NORMAL;MONITORAMENTO
UNIAO DOS PALMARES;10;218;ESCOLA MUNICIPAL SALOMÉ DA ROCHA BARROS;RUA LINDOLFO GOMES CABRAL, 590;-9.1605223;-36.019327;União dos Palmares;;ENCONTRADO;6;40;1000;EMANUEL GOMES BALBINO;MDB;124;12.4;24.35;PRIORIDADE NORMAL;AGENDA RECOMENDADA
ARAPIRACA;47;219;CENTRO DE EDUCAÇÃO INFANTIL JOANNA DE ANGELLIS (ANTIGO MADRE PAULINA);RUA DOMINGOS CORREIA 1065;;;;;NAO_ENCONTRADO;4;58;550;ROGERIO PEREIRA MELO;MDB;45;8.18;24.32;PRIORIDADE NORMAL;MONITORAMENTO
MACEIO;115;220;ESC. MUN. RADIALISTA EDÉCIO LOPES (ANTIGO COL. LAERSON ROSA);RUA ALAMEDA CÉLIA DOS ANJOS, 06;;;;;NAO_ENCONTRADO;7;40;945;FRANCISCO HOLANDA COSTA FILHO;PL;153;16.19;24.31;PRIORIDADE NORMAL;MONITORAMENTO
CORURIPE;7;221;ESCOLA MUNICIPAL JOSE DE CARVALHO SOUZA;RUA DO GRUPO, S/N;-10.1596304;-36.1604313;Coruripe;;ENCONTRADO;8;29;1210;RODIO ENÉAS GUIMARÃES GAMA;PP;228;18.84;24.12;PRIORIDADE NORMAL;AGENDA RECOMENDADA
ARAPIRACA;48;222;IFAL - INSTITUTO FEDERAL DE ALAGOAS;RODOVIA AL 110, N 4805;;;;;NAO_ENCONTRADO;4;48;829;LEANDRO BARBOSA DE ALMEIDA;MDB;209;25.21;24.08;PRIORIDADE NORMAL;MONITORAMENTO
MACEIO;116;223;ESC. MUN. PROFª MARILÚCIA MACEDO DOS SANTOS (ANTIGA PIABAS);RUA MARIA CECILIA DA ROCHA, S/N;-9.6350701;-35.7169194;Jacintinho;;ENCONTRADO;6;44;841;DAVID CABRAL DAVINO;PP;147;17.48;23.99;PRIORIDADE NORMAL;MONITORAMENTO
MACEIO;117;224;CLUBE DA CAIXA ECONÔMICA FEDERAL (APCEF/AL);ROD. AL 101 NORTE, S/N;;;;;NAO_ENCONTRADO;5;37;1104;KELMANN VIEIRA DE OLIVEIRA;MDB;280;25.36;23.98;PRIORIDADE NORMAL;AGENDA RECOMENDADA
MACEIO;118;225;ESCOLA DE ENSINO FUNDAMENTAL JOSÉ CORREIA COSTA;RUA LOURIVAL DE AGUIAR PESSOA, S/N;-9.5995139;-35.7234202;Serraria;;ENCONTRADO;6;42;896;MILTON LUNA BARROS NETO;PSB;74;8.26;23.93;PRIORIDADE NORMAL;MONITORAMENTO
MACEIO;119;226;ESCOLA ESTADUAL DR. FERNANDES LIMA;AV CEL. SALUSTIANO SARMENTO, S/N;-9.6196629;-35.7109176;São Jorge;;ENCONTRADO;6;42;891;ALDO ROBERTO DA ROCHA LOUREIRO;PDT;117;13.13;23.89;PRIORIDADE NORMAL;MONITORAMENTO
MACEIO;120;227;CESMAC- CAMPOS IV - EDF. PROFº ELIAS PASSOS TENÓRIO (ANTIGO GUIDO);RUA PROF ÂNGELO NETO, N 51;-9.6627145;-35.7347176;Centro;;ENCONTRADO;8;45;698;LEONARDO DA FONSECA DIAS;PL;80;11.46;23.88;PRIORIDADE NORMAL;MONITORAMENTO
MACEIO;121;228;E.M. JAIME AMORIM MIRANDA;AV BELMIRO AMORIM, 760;-9.5786241;-35.7559373;Santa Lúcia;;ENCONTRADO;4;47;839;FRANCISCO HOLANDA COSTA FILHO;PL;179;21.33;23.88;PRIORIDADE NORMAL;MONITORAMENTO
MARECHAL DEODORO;5;229;ESCOLA MUNICIPAL MARIA PETRONILA DE GOUVEA;RUA MARINITA DE GOUVEIA SN;;;;;NAO_ENCONTRADO;8;34;1031;GILBERTO MEDEIROS SILVA;PDT;213;20.66;23.86;PRIORIDADE NORMAL;AGENDA RECOMENDADA
MACEIO;122;230;ESCOLA MUNICIPAL TOBIAS GRANJA;RUA SÃO JOSÉ, 888;-9.5818301;-35.7536067;Santa Lúcia;;ENCONTRADO;5;44;874;GALBA NOVAIS DE CASTRO NETTO;PL;96;10.98;23.82;PRIORIDADE NORMAL;MONITORAMENTO
PENEDO;5;231;ESCOLA ESTADUAL PROFESSOR ERNANI MÉRO (GRUPO ESCOLAR EXPERIMENTAL);PRAÇA LARGO DE FÁTIMA, S/N, EM FRENTE AO NUDEPE;;;;;NAO_ENCONTRADO;12;27;1034;IVO CARLOS MOURA COSTA;PV;106;10.25;23.78;PRIORIDADE NORMAL;AGENDA RECOMENDADA
ARAPIRACA;49;232;ESCOLA DE ENSINO FUNDAMENTAL GUIMARÃES PASSOS;VILA FERNANDES;;;;;NAO_ENCONTRADO;4;41;1010;SERGIO FABIO NUNES;PP;571;56.53;23.76;PRIORIDADE NORMAL;AGENDA RECOMENDADA
MACEIO;123;233;ESCOLA MUN. SÉRGIO LUIZ PESSOA BRAGA;PRACA GOVERNADOR LAMENHA FILHO, S/N;;;;;NAO_ENCONTRADO;7;38;947;FRANCISCO HOLANDA COSTA FILHO;PL;166;17.53;23.74;PRIORIDADE NORMAL;MONITORAMENTO
RIO LARGO;17;234;ESCOLA ESTADUAL TABULEIRO DO PINTO;RUA DA CAIXA SN;;;;;NAO_ENCONTRADO;6;47;721;MÁRCIO SOARES CAVALCANTE;PP;93;12.9;23.71;PRIORIDADE NORMAL;MONITORAMENTO
MACEIO;124;235;E.E. MANUEL BALTAZAR P. DIEGUES JUNIOR;CONJUNTO SANTA MARIA, S/N - RUA D QD 8;;;;;NAO_ENCONTRADO;5;42;914;LUCIANO MARINHO DA SILVA;PL;153;16.74;23.62;PRIORIDADE NORMAL;MONITORAMENTO
RIO LARGO;18;236;ANTIGA ESCOLA FRANCISCO LEÃO DO CENTRO;PRAÇA TEIZEIRA BARROS., SN;;;;;NAO_ENCONTRADO;7;45;717;MÁRCIO SOARES CAVALCANTE;PP;108;15.06;23.57;PRIORIDADE NORMAL;MONITORAMENTO
MACEIO;125;237;ESC. EST. PROF. MÁRIO BROAD;AV. JULIO MARQUES LUZ, 231;-9.6521099;-35.7185163;Mangabeiras;;ENCONTRADO;6;44;796;KELMANN VIEIRA DE OLIVEIRA;MDB;80;10.05;23.56;PRIORIDADE NORMAL;MONITORAMENTO
MARECHAL DEODORO;6;238;ESCOLA MUNICIPAL ALTINA RIBEIRO TOLEDO;VILA ALTINA SN;;;;;NAO_ENCONTRADO;8;27;1189;EVERALDO PEREIRA LOPES JUNIOR;PSB;142;11.94;23.33;PRIORIDADE NORMAL;AGENDA RECOMENDADA
MACEIO;126;239;E.M. PROFESSOR PETRONIO VIANA;CONJUNTO CARMINHA, S/N;-9.561154;-35.7109637;Benedito Bentes;;ENCONTRADO;7;37;934;JEANNYNE BELTRÃO LIMA SIQUEIRA;PL;102;10.92;23.32;PRIORIDADE NORMAL;MONITORAMENTO
MARECHAL DEODORO;7;240;ESCOLA MUNICIPAL PREFEITO MANOEL MESSIAS DOS SANTOS;RUA SALVADOR S/N LOT. LUAR DO FRANCÊS;;;;;NAO_ENCONTRADO;8;29;1118;THIAGO HENRIQUE GONDIN TORRES;PDT;188;16.82;23.23;PRIORIDADE NORMAL;AGENDA RECOMENDADA
MACEIO;127;241;E.M. PADRE BRANDÃO LIMA - ANTIGA UNIT;AV CACHOEIRA DO MEIRIM, S/N;-9.5611728;-35.7449398;Antares;;ENCONTRADO;5;39;961;LUCIANO MARINHO DA SILVA;PL;122;12.7;23.19;PRIORIDADE NORMAL;MONITORAMENTO
CORURIPE;8;242;ESCOLA MUNICIPAL JOSE BUARQUE DA SILVA;RUA CHICO AZEVEDO, S/N;-10.1215463;-36.1728897;Coruripe;;ENCONTRADO;7;32;1067;GUTTENBERG BRÊDA SOBRINHO;MDB;117;10.97;23.13;PRIORIDADE NORMAL;AGENDA RECOMENDADA
MACEIO;128;243;ESC. EST. PROF. VIRGÍNIO DE CAMPOS;RUA FIRMINO DE VASCONCELOS, 22;-9.664727;-35.7134461;Ponta da Terra;;ENCONTRADO;7;41;788;KELMANN VIEIRA DE OLIVEIRA;MDB;95;12.06;23.08;PRIORIDADE NORMAL;MONITORAMENTO
MACEIO;129;244;COLÉGIO SAGRADA FAMILIA;RUA ALAMEDA MARIA DAS GRAÇAS NOVAES BRANDÃO VILELA, 07;;;;;NAO_ENCONTRADO;7;39;844;FRANCISCO HOLANDA COSTA FILHO;PL;108;12.8;23.04;PRIORIDADE NORMAL;MONITORAMENTO
MACEIO;130;245;E.E. MANOEL DE ARAUJO DORIA;AV. SENADOR TEOTONIO VILELA - CJ HENRIQUE EQUELMAN, S/N;;;;;NAO_ENCONTRADO;5;39;945;JOSE SIDERLANE ARAUJO DE MENDONCA;PL;88;9.31;23.04;PRIORIDADE NORMAL;MONITORAMENTO
RIO LARGO;19;246;GRUPO ESCOLAR PROFESSOR POMPEU SARMENTO;TRAV SANTA LUZIA S/N ;;;;;NAO_ENCONTRADO;5;43;819;MÁRCIO SOARES CAVALCANTE;PP;157;19.17;23.0;PRIORIDADE NORMAL;MONITORAMENTO
UNIAO DOS PALMARES;11;247;COLÉGIO ADVENTISTA;AV. HERMANO PLECH, 120;-9.1562349;-36.0303953;União dos Palmares;;ENCONTRADO;5;41;868;ALMIR BELARMINO DA SILVA;PDT;71;8.18;22.88;PRIORIDADE NORMAL;MONITORAMENTO
ARAPIRACA;50;248;CENTRO DE EDUCAÇÃO INFANTIL MARIA DE LOURDES PEREIRA CAVALCANTE;RUA OSMAN CAVALCANTE, S/N;;;;;NAO_ENCONTRADO;3;56;511;LEANDRO BARBOSA DE ALMEIDA;MDB;41;8.02;22.87;PRIORIDADE NORMAL;MONITORAMENTO
PALMEIRA DOS INDIOS;10;249;GRUPO ESCOLAR MONSENHOR MACEDO;RUA 15 DE NOVEMBRO SN ;-9.4166956;-36.6362459;São Cristovão;;ENCONTRADO;7;32;1040;PEDRO RODRIGUES GAIA BISNETO;MDB;111;10.67;22.87;PRIORIDADE NORMAL;AGENDA RECOMENDADA
MACEIO;131;250;E.M. SELMA BANDEIRA;AV. DA PAZ, SN - CJ. SELMA BANDEIRA;;;;;NAO_ENCONTRADO;5;38;953;JOSÉ MÁRCIO DE MEDEIROS MAIA JÚNIOR;MDB;162;17.0;22.82;PRIORIDADE NORMAL;MONITORAMENTO
MACEIO;132;251;ESCOLA DE ENS. FUND. LINDOLFO COLLOR;AV GOVERNADOR THEOBALDO BARBOSA, S/N;-9.6587477;-35.7609201;Vergel do Lago;;ENCONTRADO;6;40;817;SILVANIA BATINGA DE OLIVEIRA BARBOSA;SOLIDARIEDADE;86;10.53;22.58;PRIORIDADE NORMAL;MONITORAMENTO
MACEIO;133;252;ESCOLA DE ENSINO FUNDAMENTAL PEDRO SURUAGY;AV. MACEIO, S/N;-9.5817886;-35.7694507;Tabuleiros dos Martins;;ENCONTRADO;5;40;862;JOSÉ MÁRCIO DE MEDEIROS MAIA JÚNIOR;MDB;107;12.41;22.53;PRIORIDADE NORMAL;MONITORAMENTO
MACEIO;134;253;ESCOLA ESTADUAL JOÃO PAULO II;RUA MANOEL  INACIO, S/N;-9.6123295;-35.7473881;Chã da Jaqueira;;ENCONTRADO;6;40;810;FRANCISCO HOLANDA COSTA FILHO;PL;159;19.63;22.51;PRIORIDADE NORMAL;MONITORAMENTO
MACEIO;135;254;ESCOLA ESTADUAL PROF TARCÍSIO DE JESUS;AV. SENADOR RUI PALMEIRA, S/N;-9.6660089;-35.7642836;Trapiche da Barra;;ENCONTRADO;7;36;878;SILVANIA BATINGA DE OLIVEIRA BARBOSA;SOLIDARIEDADE;182;20.73;22.48;PRIORIDADE NORMAL;MONITORAMENTO
RIO LARGO;20;255;GRUPO ESCOLAR DALMARIO DE SOUZA;RUA ALTO DA SAUDADE SN;;;;;NAO_ENCONTRADO;6;40;803;JOSE CARLOS REIS DOS SANTOS FILHO;PP;191;23.79;22.45;PRIORIDADE NORMAL;MONITORAMENTO
MACEIO;136;256;E.M. GASTONE LÚCIA DE CARVALHO BELTRÃO;CONJ. JARDIM ROYAL - MODULO II - QD Q, S/N;;;;;NAO_ENCONTRADO;5;41;817;LUCIANO MARINHO DA SILVA;PL;127;15.54;22.39;PRIORIDADE NORMAL;MONITORAMENTO
MACEIO;137;257;COLÉGIO DINÂMICO;AVENIDA MACEIÓ, N 83;-9.5817886;-35.7694507;Tabuleiros dos Martins;;ENCONTRADO;5;41;811;GALBA NOVAIS DE CASTRO NETTO;PL;113;13.93;22.33;PRIORIDADE NORMAL;MONITORAMENTO
MACEIO;138;258;ESC. MUN. MARECHAL FLORIANO PEIXOTO;RUA DA IGREJA, S/N;-9.5782165;-35.8110395;Rio Novo;;ENCONTRADO;5;36;956;KELMANN VIEIRA DE OLIVEIRA;MDB;188;19.67;22.26;PRIORIDADE NORMAL;MONITORAMENTO
MACEIO;139;259;ESCOLA MUNICIPAL DE ENSINO FUNDAMENTAL MARIA DE FÁTIMA MELO;AV MACEIO, 342;-9.6669361;-35.7284605;Jaraguá;;ENCONTRADO;6;42;723;GALBA NOVAIS DE CASTRO NETTO;PL;74;10.24;22.26;PRIORIDADE NORMAL;MONITORAMENTO
MACEIO;140;260;COLÉGIO BRASIL (ANTIGO ISAAC NEWTON);RUA FERNANDO MENDES PINTO, N 11;;;;;NAO_ENCONTRADO;5;45;674;TEREZA NELMA PORTO VIANA SOARES;PT;62;9.2;22.18;PRIORIDADE NORMAL;MONITORAMENTO
MACEIO;141;261;COLÉGIO SANTA AMÉLIA;RUA D, 11 LOTEAMENTO SANTA AMÉLIA;;;;;NAO_ENCONTRADO;6;39;805;GALBA NOVAIS DE CASTRO NETTO;PL;84;10.43;22.17;PRIORIDADE NORMAL;MONITORAMENTO
MACEIO;142;262;ESCOLA ESTADUAL CAPITÃO ÁLVARO VICTOR;PRACA DO CRUZEIRO, S/N;-9.6518488;-35.7612473;Vergel do Lago;;ENCONTRADO;7;35;870;JOSÉ MÁRCIO DE MEDEIROS MAIA JÚNIOR;MDB;118;13.56;22.11;PRIORIDADE NORMAL;MONITORAMENTO
CORURIPE;9;263;ESCOLA MUN. CENT. EDUCAÇÃO INFANTIL PROF. MARIA ZENAIDE ROCHA SANTOS;RUA PERNAMBUCO NOVO, S/N,;;;;;NAO_ENCONTRADO;9;30;920;GUTTENBERG BRÊDA SOBRINHO;MDB;104;11.3;22.1;PRIORIDADE NORMAL;MONITORAMENTO
MACEIO;143;264;COLÉGIO ELITE LOTEAMENTO MONTE BELLO;RUA PADRE CÍCERO, 342;-9.5616951;-35.739975;Antares;;ENCONTRADO;5;44;687;TEREZA NELMA PORTO VIANA SOARES;PT;57;8.3;22.02;PRIORIDADE NORMAL;MONITORAMENTO
UNIAO DOS PALMARES;12;265;ESCOLA ESTADUAL PAULO SARMENTO;RUA SENADOR RUI PALMEIRA, S/N;-9.1570546;-36.0247513;União dos Palmares;;ENCONTRADO;4;45;706;EMANUEL GOMES BALBINO;MDB;62;8.78;22.01;PRIORIDADE NORMAL;MONITORAMENTO
MACEIO;144;266;ESCOLA EST. PROFª ADEILZA MARIA OLIVEIRA;RUA DO CAMPO, S/N;-9.6200657;-35.6940737;Jacarecica;;ENCONTRADO;7;35;852;FRANCISCO HOLANDA COSTA FILHO;PL;126;14.79;21.94;PRIORIDADE NORMAL;MONITORAMENTO
MACEIO;145;267;ESCOLA SESI/SENAI;AV. ANTÔNIO LISBOA DE AMORIM, 1751;-9.5513964;-35.7347123;Benedito Bentes;;ENCONTRADO;5;39;829;JOSE SIDERLANE ARAUJO DE MENDONCA;PL;96;11.58;21.92;PRIORIDADE NORMAL;MONITORAMENTO
MACEIO;146;268;ESCOLA ESTADUAL MARIA AMÁLIA;RUA VALDEMAR RUFINO DOS SANTOS, S/N,VILA ABC;;;;;NAO_ENCONTRADO;6;28;1113;JOSÉ MÁRCIO DE MEDEIROS MAIA JÚNIOR;MDB;509;45.73;21.91;PRIORIDADE NORMAL;AGENDA RECOMENDADA
UNIAO DOS PALMARES;13;269;ESCOLA DE ENSINO FUNDAMENTAL FILOMENA MEDEIROS;RUA EDGAR SARMENTO, 217;-9.1631868;-36.0315847;União dos Palmares;;ENCONTRADO;5;40;798;EDMILTON RODRIGUES DA SILVA;MDB;66;8.27;21.91;PRIORIDADE NORMAL;MONITORAMENTO
MACEIO;147;270;SEST/SENAT;AV. DEP. CÉSAR ESUSTÁQUIO MALTA, 500;;;;;NAO_ENCONTRADO;6;39;769;LEONARDO DA FONSECA DIAS;PL;60;7.8;21.82;PRIORIDADE NORMAL;MONITORAMENTO
MACEIO;148;271;ESCOLA ESTADUAL THOMAZ ESPÍNDOLA;RUA VEREADOR JOSÉ DE CALDAS, S/N;-9.6585647;-35.7508753;Ponta Grossa;;ENCONTRADO;6;39;755;JOSÉ MÁRCIO DE MEDEIROS MAIA JÚNIOR;MDB;96;12.72;21.69;PRIORIDADE NORMAL;MONITORAMENTO
RIO LARGO;21;272;ESCOLA ESTADUAL JOÃO MORAIS CAVALCANTE;R. DO MATADOURO, CJ HAB JOSE FERNANDES TORRES, CJ MUTIRÃO;;;;;NAO_ENCONTRADO;5;47;555;MÁRCIO SOARES CAVALCANTE;PP;69;12.43;21.62;PRIORIDADE NORMAL;MONITORAMENTO
DELMIRO GOUVEIA;3;273;VICENTE DE MENEZES, ESCOLA DE 1 E 2 GRAUS;RUA 21 DE ABRIL, S/N;-9.382029;-38.0005171;Eldorado;;ENCONTRADO;12;18;1073;EDNA GOMES BERNARDO;MDB;178;16.59;21.51;PRIORIDADE NORMAL;AGENDA RECOMENDADA
MACEIO;149;274;ESCOLA DE ENSINO FUNDAMENTAL PROF. SUZEL DANTAS;RUA ANTONIO MONTEIRO DE CARVALHO, S/N;-9.5935498;-35.7681296;Tabuleiros dos Martins;;ENCONTRADO;5;37;837;JOSÉ MÁRCIO DE MEDEIROS MAIA JÚNIOR;MDB;122;14.58;21.41;PRIORIDADE NORMAL;MONITORAMENTO
MACEIO;150;275;COLEGIO ATHENEU;ESTRADA DA CODEAL, 33;;;;;NAO_ENCONTRADO;5;40;737;MARIA DE FÁTIMA GALINA FORTES FERREIRA SANTIAGO;MDB;91;12.35;21.32;PRIORIDADE NORMAL;MONITORAMENTO
MACEIO;151;276;ESCOLA ESTADUAL DR. JÚLIO AUTO;CONJUNTO JOAQUIM LEAO, S/N;;;;;NAO_ENCONTRADO;6;37;768;SILVANIA BATINGA DE OLIVEIRA BARBOSA;SOLIDARIEDADE;91;11.85;21.23;PRIORIDADE NORMAL;MONITORAMENTO
RIO LARGO;22;277;GRUPO ESCOLAR ODILO ALVARES DE SOUZA;AV MUNIZ FALCAO SN;;;;;NAO_ENCONTRADO;4;44;650;JEFFERSON ALEXANDRE CAVALCANTE;AVANTE;79;12.15;21.17;PRIORIDADE NORMAL;MONITORAMENTO
MACEIO;152;278;ESCOLA ESTADUAL TAVARES BASTOS;PRAÇA CENTENÁRIO, S/N;;;;;NAO_ENCONTRADO;5;42;659;JOSÉ MÁRCIO DE MEDEIROS MAIA JÚNIOR;MDB;82;12.44;21.16;PRIORIDADE NORMAL;MONITORAMENTO
MACEIO;153;279;ESC. EST. PROF. EDUARDO ALMEIDA DA SILVA;RUA SAO PEDRO, S/N;-9.5251247;-35.6115964;Ipioca;;ENCONTRADO;5;34;894;KELMANN VIEIRA DE OLIVEIRA;MDB;186;20.81;21.07;PRIORIDADE NORMAL;MONITORAMENTO
RIO LARGO;23;280;CRECHE MUNICIPAL CELYRIO ADAMASTOR BARRETO ACIOLY;ROD AL 210, CJ EDSON NOVAES S/N;;;;;NAO_ENCONTRADO;7;39;640;JOSÉ ROGÉRIO DA SILVA;PP;211;32.97;21.07;PRIORIDADE NORMAL;MONITORAMENTO
CORURIPE;10;281;ESCOLA MUNICIPAL MANOEL CECÍLIO DE JESUS;RUA DO JASMIM,;;;;;NAO_ENCONTRADO;6;31;925;GUTTENBERG BRÊDA SOBRINHO;MDB;113;12.22;20.98;PRIORIDADE NORMAL;MONITORAMENTO
MARECHAL DEODORO;8;282;ESCOLA ESTADUAL DEODORO DA FONSECA;PRACA PEDRO PAULINO SN;;;;;NAO_ENCONTRADO;7;31;870;EVERALDO PEREIRA LOPES JUNIOR;PSB;109;12.53;20.93;PRIORIDADE NORMAL;MONITORAMENTO
MACEIO;154;283;CEAGB - ESCOLA ESTADUAL DOM PEDRO II;AV. FERNANDES LIMA, S/N;-9.6219993;-35.7387664;Gruta de Lourdes;;ENCONTRADO;5;43;601;TEREZA NELMA PORTO VIANA SOARES;PT;47;7.82;20.89;PRIORIDADE NORMAL;MONITORAMENTO
PENEDO;6;284;COOPERATIVA EDUCACIONAL DE PENEDO - COOPEPE LTDA;PARQUE DR. ADAIL FREIRE PEREIRA, 127 (PRAÇA SANTA LUZIA);;;;;NAO_ENCONTRADO;9;27;882;ANTONIO DE FIGUEIREDO BARBOSA JUNIOR;PSB;103;11.68;20.85;PRIORIDADE NORMAL;MONITORAMENTO
MACEIO;155;285;INSTITUTO FEDERAL DE ALAGOAS - IFAL (ANTIGO CEFET);RUA MIZAEL DOMINGUES, N 530;-9.6653779;-35.7309741;Centro;;ENCONTRADO;5;43;594;LEONARDO DA FONSECA DIAS;PL;67;11.28;20.82;PRIORIDADE NORMAL;MONITORAMENTO
MARECHAL DEODORO;9;286;ESCOLA MUNICIPAL CARLOS AVELINO DA SILVA;RES MARIA GISLENE MATHEUS, S/N;;;;;NAO_ENCONTRADO;6;26;1055;EVERALDO PEREIRA LOPES JUNIOR;PSB;145;13.74;20.76;PRIORIDADE NORMAL;AGENDA RECOMENDADA
SAO MIGUEL DOS CAMPOS;8;287;ESCOLA DE 1 E 2 GRAUS NUNILA MACHADO;VISCONDE DE SINIMBU, 182;;;;;NAO_ENCONTRADO;5;27;1073;JOSIVALDO JOSÉ DA SILVA;PDT;145;13.51;20.74;PRIORIDADE NORMAL;AGENDA RECOMENDADA
MACEIO;156;288;COLÉGIO CRISTO REI;RUA CLAUDIO LIVIO, 83;-9.6468277;-35.73761;Farol;;ENCONTRADO;5;41;644;TEREZA NELMA PORTO VIANA SOARES;PT;60;9.32;20.72;PRIORIDADE NORMAL;MONITORAMENTO
RIO LARGO;24;289;ESCOLA DE EDUCAÇÃO INFANTIL AQUINO JAPIASSÚ;VILA MARÍLIA;;;;;NAO_ENCONTRADO;4;43;630;MÁRCIO SOARES CAVALCANTE;PP;71;11.27;20.68;PRIORIDADE NORMAL;MONITORAMENTO
PALMEIRA DOS INDIOS;11;290;INSTITUTO FEDERAL DE ALAGOAS - IFAL;PALMEIRA DE FORA;-9.4041909;-36.6549701;Vila João XXIII;;ENCONTRADO;6;29;949;FABIANO GOMES DE SOUZA;REPUBLICANOS;147;15.49;20.62;PRIORIDADE NORMAL;MONITORAMENTO
MACEIO;157;291;CMEI GRACILIANO RAMOS;AV. JOSE HAILTON DOS SANTOS, 471;-9.5528028;-35.7632553;Graciliano Ramos;;ENCONTRADO;4;39;744;LUCIANO MARINHO DA SILVA;PL;321;43.15;20.61;PRIORIDADE NORMAL;MONITORAMENTO
SAO MIGUEL DOS CAMPOS;9;292;ESCOLA DE ENSINO SUPERIOR DE SAO MIGUEL DOS CAMPOS;PRACA SENHORA DOS PRAZERES, SN;;;;;NAO_ENCONTRADO;6;27;1005;JOSIVALDO JOSÉ DA SILVA;PDT;97;9.65;20.57;PRIORIDADE NORMAL;AGENDA RECOMENDADA
RIO LARGO;25;293;ESCOLA DE EDUCAÇÃO INFANTIL PADRE PAULINO;CONJUNTO MUTIRÃO;;;;;NAO_ENCONTRADO;5;42;590;IZAQUE PEREIRA SILVA;AVANTE;71;12.03;20.49;PRIORIDADE NORMAL;MONITORAMENTO
MACEIO;158;294;COLÉGIO SANTA AMÉLIA GRUTA;RUA EURICO ACYOLE WANDERLEY, N 804;-9.6196041;-35.7308553;Gruta de Lourdes;;ENCONTRADO;5;43;559;TEREZA NELMA PORTO VIANA SOARES;PT;75;13.42;20.48;PRIORIDADE NORMAL;MONITORAMENTO
SAO MIGUEL DOS CAMPOS;10;295;ESCOLA DE EDUCAÇÃO BÁSICA CONSTRUTIVISTA;RUA PROJETADA, 16;;;;;NAO_ENCONTRADO;8;24;985;DINEY SOARES TORRES NETO;MDB;101;10.25;20.47;PRIORIDADE NORMAL;MONITORAMENTO
MACEIO;159;296;ESC. DE ENSINO FUND. PROF. ANTÍDIO VIEIRA;RUA DR PAULO NETO, S/N;-9.6760815;-35.7597408;Trapiche da Barra;;ENCONTRADO;6;39;624;SILVANIA BATINGA DE OLIVEIRA BARBOSA;SOLIDARIEDADE;134;21.47;20.42;PRIORIDADE NORMAL;MONITORAMENTO
MACEIO;160;297;EDIFÍCIO DO SENAC;AV. PEDRO PAULINO, 77;;;;;NAO_ENCONTRADO;5;40;635;DAVID CABRAL DAVINO;PP;56;8.82;20.34;PRIORIDADE NORMAL;MONITORAMENTO
MACEIO;161;298;E.M. SILVIA CELINA NUNES LIMA;RUA BENEDITO CALAÇA LOUREIRO, 2001;-9.5452792;-35.7576376;Cidade Universitária;;ENCONTRADO;4;38;741;LUCIANO MARINHO DA SILVA;PL;301;40.62;20.28;PRIORIDADE NORMAL;MONITORAMENTO
CORURIPE;11;299;ESCOLA MUNICIPAL FRANCISCO AMALIO MARIA;RUA DO CAJUEIRO, S/N;-10.1585695;-36.135133;Coruripe;;ENCONTRADO;7;24;1014;ADGER DA ROCHA MARIA JUNIOR;PP;241;23.77;20.27;PRIORIDADE NORMAL;AGENDA RECOMENDADA
MACEIO;162;300;ESCOLA DE EDUCAÇÃO BÁSICA ATUAL;RUA ZACARIAS FONTAN DE MELO, 03;-9.5724969;-35.7540943;Santa Lúcia;;ENCONTRADO;3;43;630;FRANCISCO HOLANDA COSTA FILHO;PL;86;13.65;20.2;PRIORIDADE NORMAL;MONITORAMENTO
MARECHAL DEODORO;10;301;ESCOLA MUNICIPAL DR. CLÁUDIO ROBERTO COSTA DOS SANTOS;AV BENEDITO AGNELO DE LIMA SN;-9.7408231;-35.882999;Barro Vermelho;;ENCONTRADO;6;28;932;NILSON DO NASCIMENTO SANTOS;PSB;177;18.99;20.16;PRIORIDADE NORMAL;MONITORAMENTO
MACEIO;163;302;E.M. LUIZ PEDRO DA SILVA;RUA DEPUTADO JOSÉ BERNARDES, 10;-9.6113055;-35.7580209;Petrópolis;;ENCONTRADO;4;38;726;DAVID CABRAL DAVINO;PP;67;9.23;20.14;PRIORIDADE NORMAL;MONITORAMENTO
UNIAO DOS PALMARES;14;303;CRECHE MUNICIPAL TIA SUZETE;CONJUNTO NOVA ESPERANÇA;;;;;NAO_ENCONTRADO;4;39;694;EDMILTON RODRIGUES DA SILVA;MDB;58;8.36;20.12;PRIORIDADE NORMAL;MONITORAMENTO
DELMIRO GOUVEIA;4;304;FRANCISCA ROSA DA COSTA,GRUPO ESCOLAR;RUA SARGENTO REGINALDO BANDEIRA, 342;;;;;NAO_ENCONTRADO;8;18;1120;MAREVAL FERREIRA DA SILVA;MDB;245;21.88;20.01;PRIORIDADE NORMAL;AGENDA RECOMENDADA
MACEIO;164;305;ESC. MUN. PIO X (PRÉDIO DO ANTIGO COL.SAGRADA FAMÍLIA);RUA PROFESSORA ZEZE LOUREIRO, 200;;;;;NAO_ENCONTRADO;5;40;594;JOSÉ MÁRCIO DE MEDEIROS MAIA JÚNIOR;MDB;60;10.1;19.94;PRIORIDADE NORMAL;MONITORAMENTO
MACEIO;165;306;ESCOLA SANTA ROSA;TRAV FIRMINO DE VASCONCELOS, 100;;;;;NAO_ENCONTRADO;5;37;680;KELMANN VIEIRA DE OLIVEIRA;MDB;83;12.21;19.89;PRIORIDADE NORMAL;MONITORAMENTO
MACEIO;166;307;ESCOLA MUNICIPAL TEREZA DE JESUS;RUA SARGENTO JAIME, 75;-9.6701618;-35.7460477;Prado;;ENCONTRADO;5;39;617;JOSÉ MÁRCIO DE MEDEIROS MAIA JÚNIOR;MDB;101;16.37;19.87;PRIORIDADE NORMAL;MONITORAMENTO
MACEIO;167;308;ESC. EST. JORNALISTA RAUL LIMA;RUA DA IGREJA, S/N;-9.5782165;-35.8110395;Rio Novo;;ENCONTRADO;5;34;768;KELMANN VIEIRA DE OLIVEIRA;MDB;197;25.65;19.86;PRIORIDADE NORMAL;MONITORAMENTO
MACEIO;168;309;CAIC-ESCOLA ESTADUAL MARIA RITA LYRA DE ALMEIDA;AV. SENADOR RUI PALMEIRA, S/N;-9.6660089;-35.7642836;Trapiche da Barra;;ENCONTRADO;6;34;712;SILVANIA BATINGA DE OLIVEIRA BARBOSA;SOLIDARIEDADE;172;24.16;19.8;PRIORIDADE NORMAL;MONITORAMENTO
SAO MIGUEL DOS CAMPOS;11;310;ESCOLA MUNICIPAL DIONISIA APRATTO TENORIO;AV. PREFEITO PEDRO FERNANDES, S/N;;;;;NAO_ENCONTRADO;8;26;844;DINEY SOARES TORRES NETO;MDB;107;12.68;19.7;PRIORIDADE NORMAL;MONITORAMENTO
MACEIO;169;311;ESCOLA DE ENSINO FUNDAMENTAL PROFº PAULO FREIRE;AV JOSÉ AIRTON GONDIM LAMENHA SN;-9.6097231;-35.6985696;São Jorge;;ENCONTRADO;4;41;587;MARCELO PALMEIRA CAVALCANTE;PL;87;14.82;19.68;PRIORIDADE NORMAL;MONITORAMENTO
MACEIO;170;312;COLÉGIO VILA RICA;TV. MENINO MARCELO 99 A;-9.595482;-35.7200645;Serraria;;ENCONTRADO;4;40;615;TEREZA NELMA PORTO VIANA SOARES;PT;48;7.8;19.66;PRIORIDADE NORMAL;MONITORAMENTO
UNIAO DOS PALMARES;15;313;ESCOLA DE ENSINO FUNDAMENTAL FERNANDO JUAZEIRO;AV. DR. HERMANO PLECH 488;;;;;NAO_ENCONTRADO;4;38;672;ALMIR BELARMINO DA SILVA;PDT;58;8.63;19.62;PRIORIDADE NORMAL;MONITORAMENTO
MACEIO;171;314;EDUCANDÁRIO EUNICE WEAVER;AV. GUSTAVO PAIVA, 2359;-9.6478561;-35.7147108;Mangabeiras;;ENCONTRADO;5;41;523;TEREZA NELMA PORTO VIANA SOARES;PT;57;10.9;19.55;PRIORIDADE NORMAL;MONITORAMENTO
MARECHAL DEODORO;11;315;NEI TÂNIA CAVALCANTE;AV CATUÇABA SN;-9.7256884;-35.8193626;Marechal Deodoro;;ENCONTRADO;6;24;979;GILBERTO MEDEIROS SILVA;PDT;385;39.33;19.44;PRIORIDADE NORMAL;MONITORAMENTO
DELMIRO GOUVEIA;5;316;LUIZ AUGUSTO DE AZEVEDO, ESCOLA;RUA NASCIMENTO BANDEIRA S/N;-9.3852148;-38.0003117;Eldorado;;ENCONTRADO;9;18;1004;MARCOS ANTONIO SILVA;MDB;171;17.03;19.38;PRIORIDADE NORMAL;AGENDA RECOMENDADA
MACEIO;172;317;ESC. EST. PROFª ANA COELHO PALMEIRA;CONJ. ALFREDO GASPAR DE MENDONCA, S/N;;;;;NAO_ENCONTRADO;4;39;612;KELMANN VIEIRA DE OLIVEIRA;MDB;103;16.83;19.33;PRIORIDADE NORMAL;MONITORAMENTO
MARECHAL DEODORO;12;318;NEI ADÉLIA CAVALCANTE COSTA;RUA DOS CAJUEIROS;;;;;NAO_ENCONTRADO;5;28;887;THIAGO HENRIQUE GONDIN TORRES;PDT;111;12.51;19.24;PRIORIDADE NORMAL;MONITORAMENTO
MARECHAL DEODORO;13;319;ESCOLA MUNICIPAL DR. JOVINIANO DE ALMEIDA RODAS;RUA SAO PEDRO SN;-9.7219612;-35.893125;Barro Vermelho;;ENCONTRADO;6;31;744;THIAGO HENRIQUE GONDIN TORRES;PDT;92;12.37;19.23;PRIORIDADE NORMAL;MONITORAMENTO
DELMIRO GOUVEIA;6;320;AFRANIO SALGADO LAGES, ESCOLA;TRAVESSA NASCIMENTO BANDEIRA, S/N;-9.3843265;-38.0002215;Eldorado;;ENCONTRADO;8;17;1067;MAREVAL FERREIRA DA SILVA;MDB;201;18.84;19.21;PRIORIDADE NORMAL;AGENDA RECOMENDADA
MACEIO;173;321;INSS;AV. DONA CONSTANCIA DE GOES MONTEIRO, S/N;;;;;NAO_ENCONTRADO;4;43;467;JOSÉ MÁRCIO DE MEDEIROS MAIA JÚNIOR;MDB;45;9.64;19.11;PRIORIDADE NORMAL;MONITORAMENTO
MACEIO;174;322;ESCOLA MUN. PROF. DERALDO CAMPOS;RUA TENENTE MOISÉS S. FIRMINO, S/N;;;;;NAO_ENCONTRADO;4;42;495;JONATAS JOSE OLIVEIRA DE OMENA;PL;67;13.54;19.08;PRIORIDADE NORMAL;MONITORAMENTO
PALMEIRA DOS INDIOS;12;323;GRUPO ESCOLAR ANTÔNIA MACEDO;RUA CEL ANTÔNIO PANTALEÃO SN;;;;;NAO_ENCONTRADO;5;28;864;PEDRO RODRIGUES GAIA BISNETO;MDB;120;13.89;19.02;PRIORIDADE NORMAL;MONITORAMENTO
MACEIO;175;324;SEDE DO SOPÃO SOPROBEM;RUA DR. OSWALDO CRUZ, S/N;-9.6214949;-35.7555418;Chã de Bebedouro;;ENCONTRADO;6;38;487;MARCELO PALMEIRA CAVALCANTE;PL;49;10.06;18.81;PRIORIDADE NORMAL;MONITORAMENTO
MACEIO;176;325;CMEI HERBERT DE SOUZA;ROD. AL 101 NORTE, S/N;;;;;NAO_ENCONTRADO;4;37;618;KELMANN VIEIRA DE OLIVEIRA;MDB;137;22.17;18.8;PRIORIDADE NORMAL;MONITORAMENTO
CORURIPE;12;326;CENTRO EDUCACIONAL PROFISSIONAL MARIA ALICE BELTRÃO DE CASTRO SIQUEIRA;RUA PERNAMBUCO NOVO;;;;;NAO_ENCONTRADO;7;23;887;JOSÉ MAURÍCIO DOS SANTOS;MDB;110;12.4;18.75;PRIORIDADE NORMAL;MONITORAMENTO
MACEIO;177;327;GRUPO ESCOLAR ANTÔNIO VASCO;PRACA JOSE EMIDIO DE CARVALHO, S/N;;;;;NAO_ENCONTRADO;3;35;723;GALBA NOVAIS DE CASTRO NETTO;PL;167;23.1;18.74;PRIORIDADE NORMAL;MONITORAMENTO
MACEIO;178;328;COLÉGIO LEONARDO DA VINCI  ( ANTIGO PRÍNCIPE DA PAZ);RUA XAVIER DE BRITO, 891;-9.6676209;-35.7488513;Prado;;ENCONTRADO;4;38;576;JOSÉ MÁRCIO DE MEDEIROS MAIA JÚNIOR;MDB;81;14.06;18.69;PRIORIDADE NORMAL;MONITORAMENTO
MACEIO;179;329;ESCOLA DE ENSINO FUNDAMENTAL DOM HELDER CÂMARA;RUA ACRE, S/N;-9.6439982;-35.7289406;Feitosa;;ENCONTRADO;4;35;653;CLAUDIO MOREIRA DA SILVA;PL;222;34.0;18.55;PRIORIDADE NORMAL;MONITORAMENTO
MACEIO;180;330;ESCOLA PADRE PIERRE VIGNE;RUA JOEL VIEIRA DOS ANJOS 358;-9.6279409;-35.7205749;Feitosa;;ENCONTRADO;4;40;499;CLAUDIO MOREIRA DA SILVA;PL;58;11.62;18.54;PRIORIDADE NORMAL;MONITORAMENTO
MACEIO;181;331;ESCOLA ESTADUAL JOSÉ OLIVEIRA SILVA;RUA JARDIM ESPERANCA, S/N;-9.6574902;-35.7527274;Ponta Grossa;;ENCONTRADO;4;39;528;JONATAS JOSE OLIVEIRA DE OMENA;PL;70;13.26;18.52;PRIORIDADE NORMAL;MONITORAMENTO
PENEDO;7;332;EMEB VEREADOR JOSÉ DA COSTA MANGABEIRA;RUA F, LOTEAMENTO SÃO GONÇALO, SN;;;;;NAO_ENCONTRADO;6;26;811;DERIVAN THOMAZ;PV;83;10.23;18.41;PRIORIDADE NORMAL;MONITORAMENTO
MACEIO;182;333;ESCOLA MUN. DOM MIGUEL FENELON CÂMARA;LOTEAMENTO JARDIM PETROPOLIS II, SN, QD 26;;;;;NAO_ENCONTRADO;4;37;564;FRANCISCO HOLANDA COSTA FILHO;PL;91;16.13;18.28;PRIORIDADE NORMAL;MONITORAMENTO
MARECHAL DEODORO;14;334;ESCOLA MUNICIPAL JOSÉ BISPO DA SILVA;AV. CATUÇABA, S/N;-9.7180783;-35.8235422;Marechal Deodoro;;ENCONTRADO;5;23;940;GILBERTO MEDEIROS SILVA;PDT;331;35.21;18.28;PRIORIDADE NORMAL;MONITORAMENTO
SAO MIGUEL DOS CAMPOS;12;335;ESCOLA MUNICIPAL PROFESSORA NOEMIA BASTOS;AVENIDA VERA CRUZ, 111;-9.7832594;-36.0919014;Centro;;ENCONTRADO;5;27;818;DINEY SOARES TORRES NETO;MDB;85;10.39;18.28;PRIORIDADE NORMAL;MONITORAMENTO
MACEIO;183;336;ESCOLA DE IDIOMAS YES ALDEBARAN (ANTIGO COND. ALDEBARAN);RUA DEP. ARMANDO MOREIRA SOARES, N 210;-9.5922898;-35.739578;Antares;;ENCONTRADO;4;38;523;LEONARDO DA FONSECA DIAS;PL;87;16.63;18.18;PRIORIDADE NORMAL;MONITORAMENTO
SAO MIGUEL DOS CAMPOS;13;337;CRECHE JOSEFA BENEDITA DOS SANTOS;AVENIDA PEDRO FERNANDES DE COSTA;;;;;NAO_ENCONTRADO;7;28;671;DINEY SOARES TORRES NETO;MDB;78;11.62;18.13;PRIORIDADE NORMAL;MONITORAMENTO
CORURIPE;13;338;ESCOLA MUNICIPAL GENERAL DE GOIS MONTEIRO;RUA ABELARDO HOLANDA, 105;;;;;NAO_ENCONTRADO;5;20;1015;HUGO BELTRÃO NUNES;MDB;504;49.66;18.12;PRIORIDADE NORMAL;AGENDA RECOMENDADA
MACEIO;184;339;COLÉGIO DA IMACULADA CONCEIÇÃO;AV. DR. ANTÔNIO GOUVEIA, 507;-9.6690408;-35.7150374;Pajuçara;;ENCONTRADO;5;36;526;LEONARDO DA FONSECA DIAS;PL;92;17.49;18.11;PRIORIDADE NORMAL;MONITORAMENTO
SAO MIGUEL DOS CAMPOS;14;340;COLÉGIO MUNICIPAL ESTHER SOARES TORRES;AVENIDA PREFEITO PEDRO FERNANDES DA COSTA, S/N;;;;;NAO_ENCONTRADO;7;26;725;DINEY SOARES TORRES NETO;MDB;111;15.31;18.06;PRIORIDADE NORMAL;MONITORAMENTO
DELMIRO GOUVEIA;7;341;MARIA DULCE FEITOSA,ESCOLA DE 1 GRAU;RUA BATISTA WANDERLEY, SN;-9.3744784;-37.9999685;Eldorado;;ENCONTRADO;8;17;939;EDNA GOMES BERNARDO;MDB;136;14.48;17.97;PRIORIDADE NORMAL;MONITORAMENTO
MACEIO;185;342;E.E. AQUILINA BULHÕES BARROS;RUA HENRIQUE FRANCISCO BULHÕES, 14 QD C;;;;;NAO_ENCONTRADO;4;36;559;JOSE SIDERLANE ARAUJO DE MENDONCA;PL;98;17.53;17.94;PRIORIDADE NORMAL;MONITORAMENTO
MARECHAL DEODORO;15;343;ESCOLA MUNICIPAL D. MARIA DE ARAUJO LOBO;BECO DA BARRA;-9.7353584;-35.8906491;Barro Vermelho;;ENCONTRADO;5;28;740;AUGUSTO JORGE GRANJEIRO COSTA CARNAÚBA;MDB;83;11.22;17.82;PRIORIDADE NORMAL;MONITORAMENTO
RIO LARGO;26;344;CMEI DESEMBARGADOR FRANCISCO WILDO LACERDA DANTAS;CJ ANTONIO LINS DE SOUSA , QD6, MATA DO ROLO;;;;;NAO_ENCONTRADO;3;38;536;JOSÉ ROGÉRIO DA SILVA;PP;70;13.06;17.82;PRIORIDADE NORMAL;MONITORAMENTO
MACEIO;186;345;ESCOLA MUN. CLAUDINETE BATISTA;RUA ARY PITOMBO, N 290;-9.673615;-35.7569601;Trapiche da Barra;;ENCONTRADO;4;37;507;JOSÉ MÁRCIO DE MEDEIROS MAIA JÚNIOR;MDB;47;9.27;17.73;PRIORIDADE NORMAL;MONITORAMENTO
DELMIRO GOUVEIA;8;346;ESCOLA JOSE BEZERRA DA SILVA;RUA JOANA ANGELICA S/N;-9.3867333;-37.9880888;Eldorado;;ENCONTRADO;8;18;879;EDNA GOMES BERNARDO;MDB;112;12.74;17.69;PRIORIDADE NORMAL;MONITORAMENTO
MARECHAL DEODORO;16;347;NEI MARIA IRENE DA SILVA;AV VIOLETA SN RD DENISSON AMORIM;;;;;NAO_ENCONTRADO;5;26;782;NILSON DO NASCIMENTO SANTOS;PSB;123;15.73;17.64;PRIORIDADE NORMAL;MONITORAMENTO
PENEDO;8;348;ESCOLA ESTADUAL DR. ALCIDES ANDRADE;ROD. ENGENHEIRO JOAQUIM GONÇALVES, S/N, PX. A GRANDE RIO VEÍCULOS;;;;;NAO_ENCONTRADO;6;26;728;ANTONIO DE FIGUEIREDO BARBOSA JUNIOR;PSB;66;9.07;17.6;PRIORIDADE NORMAL;MONITORAMENTO
SAO MIGUEL DOS CAMPOS;15;349;ESCOLA DE 1 GRAU TARCISIO SOARES PALMEIRA;TRAVESSA SENADOR MAXIMO, 104;;;;;NAO_ENCONTRADO;5;27;742;DINEY SOARES TORRES NETO;MDB;94;12.67;17.55;PRIORIDADE NORMAL;MONITORAMENTO
MACEIO;187;350;ESCOLA MÁRIO MAFRA;RUA SANTA FÉ, S/N;-9.6598031;-35.7497778;Ponta Grossa;;ENCONTRADO;3;39;477;JOSÉ MÁRCIO DE MEDEIROS MAIA JÚNIOR;MDB;80;16.77;17.54;PRIORIDADE NORMAL;MONITORAMENTO
MACEIO;188;351;ESC. MUN. SAGRADO CORAÇÃO DE JESUS;RUA DELMIRO GOUVEIA,S/N;-9.6430415;-35.7437536;Pinheiro;;ENCONTRADO;4;39;425;DAVID CABRAL DAVINO;PP;40;9.41;17.53;PRIORIDADE NORMAL;MONITORAMENTO
MACEIO;189;352;COLÉGIO ROSA MÍSTICA;CONJUNTO OSMAN LOUREIRO, RUA 15, N 133, QD C2;;;;;NAO_ENCONTRADO;3;37;536;GALBA NOVAIS DE CASTRO NETTO;PL;74;13.81;17.52;PRIORIDADE NORMAL;MONITORAMENTO
MACEIO;190;353;CEAGB - ESCOLA ESTADUAL JOSE DA SILVA CAMERINO;AV. FERNANDES LIMA, S/N;-9.6219993;-35.7387664;Gruta de Lourdes;;ENCONTRADO;4;40;386;TEREZA NELMA PORTO VIANA SOARES;PT;37;9.59;17.44;PRIORIDADE NORMAL;MONITORAMENTO
RIO LARGO;27;354;CRIA-CENTRO INFANTIL CORÁLIA GOMES DA SILVA;CJ JARBAS OITICICA, QD B2, N 45, MATA DO ROLO;;;;;NAO_ENCONTRADO;3;36;555;NADIELLE NAYARA DA COSTA LOPES;PP;140;25.23;17.41;PRIORIDADE NORMAL;MONITORAMENTO
MACEIO;191;355;ESC. EST. PROFª EROTILDES RODRIGUES SALDANHA (EX SEN PETRÔNIO PORTELA);RUA GOV. LAMENHA FILHO, S/N;;;;;NAO_ENCONTRADO;3;39;461;CLAUDIO MOREIRA DA SILVA;PL;98;21.26;17.39;PRIORIDADE NORMAL;MONITORAMENTO
MACEIO;192;356;COLÉGIO SANTA MADALENA SOFIA;AV TOMÁS ESPÍNDOLA, 402;-9.6507175;-35.7332135;Farol;;ENCONTRADO;3;41;389;LEONARDO DA FONSECA DIAS;PL;67;17.22;17.28;PRIORIDADE NORMAL;MONITORAMENTO
MARECHAL DEODORO;17;357;ESCOLA SESI - PROF. WILTON GAMA;RUA TENENTE JOSÉ TOMÉ SN;-9.7191988;-35.8942787;Centro;;ENCONTRADO;5;29;652;THIAGO HENRIQUE GONDIN TORRES;PDT;83;12.73;17.27;PRIORIDADE NORMAL;MONITORAMENTO
MACEIO;193;358;ESC. EST. PROF. CARLOS POVINA CAVALCANTE;RUA SANTA LUZIA, S/N;-9.5529152;-35.7898724;Santos Dumont;;ENCONTRADO;3;30;713;GALBA NOVAIS DE CASTRO NETTO;PL;271;38.01;17.17;PRIORIDADE NORMAL;MONITORAMENTO
MACEIO;194;359;ESCOLA EST. PROF. LIBERALINO BONFIM DE OLIVEIRA;RUA DO CRAVO, S/N;-9.5960352;-35.7409551;Jardim Petrópolis;;ENCONTRADO;4;31;624;JOSÉ MÁRCIO DE MEDEIROS MAIA JÚNIOR;MDB;164;26.28;17.1;PRIORIDADE NORMAL;MONITORAMENTO
MACEIO;195;360;ESC. MUN. PROFª NEIDE DE FREITAS FRANÇA;CONJ. OTACILIO HOLANDA, S/N;;;;;NAO_ENCONTRADO;4;32;586;KELMANN VIEIRA DE OLIVEIRA;MDB;220;37.54;17.02;PRIORIDADE NORMAL;MONITORAMENTO
SAO MIGUEL DOS CAMPOS;16;361;ESCOLA ESTADUAL PROFESSORA EDILEUZA OLIVEIRA DA SILVA;RUA PROJETADA, S/N;;;;;NAO_ENCONTRADO;5;27;680;JOSEPH ROBERT SANTOS MARTINIANO;MDB;69;10.15;16.95;PRIORIDADE NORMAL;MONITORAMENTO
MACEIO;196;362;COLÉGIO OURO PRETO;RUA PADRE CÍCERO, 3431;-9.5616951;-35.739975;Antares;;ENCONTRADO;3;36;502;MILTON LUNA BARROS NETO;PSB;95;18.92;16.9;PRIORIDADE NORMAL;MONITORAMENTO
MACEIO;197;363;COLÉGIO SÃO JUDAS TADEU;RUA ADOLFO GUSTAVO, 435;-9.6100399;-35.7226653;Serraria;;ENCONTRADO;3;39;408;TEREZA NELMA PORTO VIANA SOARES;PT;45;11.03;16.87;PRIORIDADE NORMAL;MONITORAMENTO
MACEIO;198;364;ESCOLA HIGINO BELO;AV SANTA RITA DE CÁSSIA;-9.6528931;-35.7321872;Farol;;ENCONTRADO;4;39;351;LEONARDO DA FONSECA DIAS;PL;39;11.11;16.81;PRIORIDADE NORMAL;MONITORAMENTO
MACEIO;199;365;ESCOLA DE ENSINO FUNDAMENTAL DR. JOSÉ CARNEIRO;RUA BERNARDO LOPES S/N;-9.627896;-35.7388809;Pinheiro;;ENCONTRADO;4;37;411;JOSÉ MÁRCIO DE MEDEIROS MAIA JÚNIOR;MDB;35;8.52;16.8;PRIORIDADE NORMAL;MONITORAMENTO
MACEIO;200;366;ESCOLA PROFº MANOEL COELHO NETO;RUA MANOEL FLORENTINO DA SILVA 190;-9.6256661;-35.7414131;Pinheiro;;ENCONTRADO;4;36;439;JONATAS JOSE OLIVEIRA DE OMENA;PL;58;13.21;16.78;PRIORIDADE NORMAL;MONITORAMENTO
PALMEIRA DOS INDIOS;13;367;ESCOLA ESTADUAL MANOEL PASSOS LIMA;RUA GERVÁSIO MOREIRA, S/N;;;;;NAO_ENCONTRADO;4;29;646;PEDRO RODRIGUES GAIA BISNETO;MDB;64;9.91;16.72;PRIORIDADE NORMAL;MONITORAMENTO
PENEDO;9;368;ESCOLA ESTADUAL JOÃO VALERIANO DE OLIVEIRA;RUA JOÃO RAMALHO, SN;-10.2733024;-36.5601197;Dom Constatino;;ENCONTRADO;6;25;664;ANTONIO DE FIGUEIREDO BARBOSA JUNIOR;PSB;59;8.89;16.69;PRIORIDADE NORMAL;MONITORAMENTO
MACEIO;201;369;ESCOLA ESTADUAL DEPUTADO GUILHERMINO DE OLIVEIRA;RUA ABELARDO PONTES LIMA, S/N;-9.650579;-35.760479;Vergel do Lago;;ENCONTRADO;3;37;433;BRIVALDO MARQUES SILVA NETO;PL;56;12.93;16.53;PRIORIDADE NORMAL;MONITORAMENTO
RIO LARGO;28;370;GRUPO ESCOLAR DERALDO CAMPOS;AVENIDA VAZ DE CASTRO S/N;-9.4855066;-35.8566295;Vila São Lourenço;;ENCONTRADO;3;39;366;MÁRCIO SOARES CAVALCANTE;PP;40;10.93;16.47;PRIORIDADE NORMAL;MONITORAMENTO
MACEIO;202;371;E.M. JORGE DE LIMA;AV BELMIRO AMORIM, 1750;-9.5833087;-35.763066;Santa Lúcia;;ENCONTRADO;2;40;383;FRANCISCO HOLANDA COSTA FILHO;PL;61;15.93;16.44;PRIORIDADE NORMAL;MONITORAMENTO
MACEIO;203;372;COLÉGIO DOM BOSCO (ANTIGO COLÉGIO CARVALHO);RUA EURICO AYRES N. 131;;;;;NAO_ENCONTRADO;3;36;452;GALBA NOVAIS DE CASTRO NETTO;PL;53;11.73;16.42;PRIORIDADE NORMAL;MONITORAMENTO
MACEIO;204;373;ESCOLA PATINHO FEIO;RUA PREFEITO ABDON ARROXELAS, N.760;-9.6558176;-35.7037682;Ponta Verde;;ENCONTRADO;3;38;357;LEONARDO DA FONSECA DIAS;PL;59;16.53;16.09;PRIORIDADE NORMAL;MONITORAMENTO
MACEIO;205;374;ESCOLA EST. PROF. LUÍS CARLOS;RUA CORONEL ADAUTO GOMES BARBOSA, S/N;-9.6563568;-35.7147908;Jatiúca;;ENCONTRADO;2;38;387;SILVANIA BATINGA DE OLIVEIRA BARBOSA;SOLIDARIEDADE;88;22.74;15.89;PRIORIDADE NORMAL;MONITORAMENTO
MACEIO;206;375;ESCOLA EST. DOM ADELMO MACHADO;RUA DOM ADELMO MACHADO, S/N;;;;;NAO_ENCONTRADO;3;34;451;SILVANIA BATINGA DE OLIVEIRA BARBOSA;SOLIDARIEDADE;61;13.53;15.82;PRIORIDADE NORMAL;MONITORAMENTO
MACEIO;207;376;ESCOLA MUNICIPAL JOÃO FEITOSA;RUA SÃO LUIZ, RESIDENCIAL  VALE DO TOCANTINS;;;;;NAO_ENCONTRADO;2;34;496;JOSÉ MÁRCIO DE MEDEIROS MAIA JÚNIOR;MDB;130;26.21;15.77;PRIORIDADE NORMAL;MONITORAMENTO
UNIAO DOS PALMARES;16;377;ESCOLA MUNICIPAL MARIA LEAL FEITOSA;RUA EDGAR SARMENTO, S/N;-9.1631868;-36.0315847;União dos Palmares;;ENCONTRADO;3;34;445;GIVANILDO GOMES DA SILVA;MDB;38;8.54;15.76;PRIORIDADE NORMAL;MONITORAMENTO
PENEDO;10;378;IFAL - CAMPUS PENEDO;ROD ENGENHEIRO JOAQUIM GONÇALVES, S/N LOT SÃO JOSÉ;;;;;NAO_ENCONTRADO;5;22;700;DERIVAN THOMAZ;PV;74;10.57;15.67;PRIORIDADE NORMAL;MONITORAMENTO
MARECHAL DEODORO;18;379;ESCOLA PROFESSORA ELEUZA GALVÃO RODAS;RUA ARTHUR PAIVA REGO SN;;;;;NAO_ENCONTRADO;4;28;542;AUGUSTO JORGE GRANJEIRO COSTA CARNAÚBA;MDB;69;12.73;15.42;PRIORIDADE NORMAL;MONITORAMENTO
CORURIPE;14;380;ESCOLA MUNICIPAL NOSSA SENHORA DO MONT SERRAT;POVOADO MIAI DE BAIXO, S/N;;;;;NAO_ENCONTRADO;4;24;660;RODIO ENÉAS GUIMARÃES GAMA;PP;262;39.7;15.38;PRIORIDADE NORMAL;MONITORAMENTO
DELMIRO GOUVEIA;9;381;ELIZEU NORBERTO, GRUPO ESCOLAR;RUA MANOEL RIBEIRO, SN;-9.3769332;-37.9959555;Eldorado;;ENCONTRADO;6;18;736;MARCIO FERNANDO FREITAS DA SILVA;PP;184;25.0;15.33;PRIORIDADE NORMAL;MONITORAMENTO
MACEIO;208;382;ESC. MUN. NOSSA SRª APARECIDA (PRÉDIO DO ANTIGO COL.SAGRADA FAMÍLIA);RUA PROFESSORA MARIA JOSÉ LOUREIRO, S/N;;;;;NAO_ENCONTRADO;3;35;364;MILTON LUNA BARROS NETO;PSB;41;11.26;15.27;PRIORIDADE NORMAL;MONITORAMENTO
MACEIO;209;383;ESCOLA DE ENS. FUND. HERMÍNIO CARDOSO;RUA BARÃO DE JARAGUA, S/N;-9.5900792;-35.786937;Fernão Velho;;ENCONTRADO;3;26;607;MILTON LUNA BARROS NETO;PSB;162;26.69;14.97;PRIORIDADE NORMAL;MONITORAMENTO
MACEIO;210;384;ESCOLA DE CEGOS CYRO ACCIOLY;RUA DR. PEDRO MONTEIRO, S/N;-9.6678324;-35.7386069;Centro;;ENCONTRADO;4;35;278;LEONARDO DA FONSECA DIAS;PL;22;7.91;14.93;PRIORIDADE NORMAL;MONITORAMENTO
MACEIO;211;385;E.E. OTACÍLIO HOLANDA DE ANDRADE;RUA SAO LUIZ, 09;-9.5706973;-35.7912674;Clima Bom;;ENCONTRADO;2;36;343;MARCELO PALMEIRA CAVALCANTE;PL;25;7.29;14.88;PRIORIDADE NORMAL;MONITORAMENTO
MACEIO;212;386;SEADES - SEC. DE EST. DA ASSISTÊNCIA E DESENVOLVIMENTO SOCIAL;RUA COMENDADOR CALACA 1339;;;;;NAO_ENCONTRADO;3;36;286;JOSÉ MÁRCIO DE MEDEIROS MAIA JÚNIOR;MDB;43;15.03;14.81;PRIORIDADE NORMAL;MONITORAMENTO
MACEIO;213;387;CEAGB - ESCOLA ESTADUAL TEOTÔNIO VILELA;AV. FERNANDES LIMA S/N;-9.6219993;-35.7387664;Gruta de Lourdes;;ENCONTRADO;3;35;313;TEREZA NELMA PORTO VIANA SOARES;PT;24;7.67;14.78;PRIORIDADE NORMAL;MONITORAMENTO
MACEIO;214;388;ESCOLA MUN. PROFª MARIA NILDA;RUA SANTA CLARA, S/N;-9.6154249;-35.7497845;Chã da Jaqueira;;ENCONTRADO;4;31;383;FRANCISCO HOLANDA COSTA FILHO;PL;60;15.67;14.77;PRIORIDADE NORMAL;MONITORAMENTO
MACEIO;215;389;ESCOLA ESTADUAL MAJOR EDUARDO EMILIANO DA FONSECA;RUA DR LUIS DE BARROS, S/N;;;;;NAO_ENCONTRADO;3;34;339;JOSÉ MÁRCIO DE MEDEIROS MAIA JÚNIOR;MDB;64;18.88;14.74;PRIORIDADE NORMAL;MONITORAMENTO
PENEDO;11;390;EMEB IRMÃ JOLENTA (ANTIGO FREITAS);RUA SANTO ANTÔNIO, SN;-10.2826113;-36.5840511;Penedo;;ENCONTRADO;4;28;461;VALDY VASCONCELOS;PSB;64;13.88;14.64;PRIORIDADE NORMAL;MONITORAMENTO
DELMIRO GOUVEIA;10;391;ANCHIETA, GRUPO ESCOLAR PADRE ( POV. LAGOINHA);POVOADO LAGOINHAS S/N;;;;;NAO_ENCONTRADO;5;16;773;RENATO DAVID TORRES DE OLIVEIRA;PT;150;19.4;14.61;PRIORIDADE NORMAL;MONITORAMENTO
PENEDO;12;392;GRUPO ESCOLAR ESTADUAL GABINO BESOURO;AVENIDA NILO PECANHA, 182, PRÓXIMO AO TIRO DE GUERRA;;;;;NAO_ENCONTRADO;4;25;544;ANTONIO DE FIGUEIREDO BARBOSA JUNIOR;PSB;59;10.85;14.56;PRIORIDADE NORMAL;MONITORAMENTO
PENEDO;13;393;FACULDADE RAIMUNDO MARINHO DE PENEDO;RUA 15 DE NOVEMBRO, FRM;;;;;NAO_ENCONTRADO;5;22;579;IVO CARLOS MOURA COSTA;PV;72;12.44;14.5;PRIORIDADE NORMAL;MONITORAMENTO
PALMEIRA DOS INDIOS;14;394;CENTRO DE ESTUDOS SUPLETIVO REMI MAIA;RUA FRANCISCO MOURA SN;-9.4151556;-36.6263931;São Luiz;;ENCONTRADO;4;27;460;GILENO COSTA SAMPAIO FILHO;PRD;48;10.43;14.34;PRIORIDADE NORMAL;MONITORAMENTO
PALMEIRA DOS INDIOS;15;395;ESCOLA ESTADUAL JOSÉ VICTORINO DA ROCHA;PRAÇA ANTONIO LEITE, S/N, CANAFÍSTULA;-9.3991794;-36.7123167;Canafístula;;ENCONTRADO;4;23;576;ANTONIO GARROTE DA SILVA FILHO;PP;288;50.0;14.28;PRIORIDADE NORMAL;MONITORAMENTO
MACEIO;216;396;CMEI SÔNIA CAVALCANTI;RUA GENERAL HERMES, S/N, BOM PARTO (VIZ. À SEMED);;;;;NAO_ENCONTRADO;4;32;295;MARCELO PALMEIRA CAVALCANTE;PL;30;10.17;14.21;PRIORIDADE NORMAL;MONITORAMENTO
MARECHAL DEODORO;19;397;ESCOLA MUNICIPAL PREFEITO EDIVAL LEMOS SANTOS;AV. SAO JOSE POEIRA SN;;;;;NAO_ENCONTRADO;4;24;536;EZECHIAS JOSÉ DO NASCIMENTO;PSB;90;16.79;14.19;PRIORIDADE NORMAL;MONITORAMENTO
DELMIRO GOUVEIA;11;398;DELMIRO GOUVEIA, ESCOLA;AV. PRESIDENTE CASTELO BRANCO, S/N;-9.3831723;-37.9994571;Eldorado;;ENCONTRADO;5;19;614;EDNA GOMES BERNARDO;MDB;98;15.96;13.96;PRIORIDADE NORMAL;MONITORAMENTO
ARAPIRACA;51;399;ESCOLA JOSÉ URSULINO MALAQUIAS;RUA PAINEIRA;-9.742687;-36.6910367;Zélia Barbosa Rocha;;ENCONTRADO;1;39;203;SERGIO FABIO NUNES;PP;37;18.23;13.92;PRIORIDADE NORMAL;MONITORAMENTO
DELMIRO GOUVEIA;12;400;NOEMIA BANDEIRA DA SILVA,ESCOLA;RUA DO CHAFARIZ, SN;;;;;NAO_ENCONTRADO;6;17;619;EDNA GOMES BERNARDO;MDB;108;17.45;13.91;PRIORIDADE NORMAL;MONITORAMENTO
MACEIO;217;401;ESCOLA PROFª MALBA LINS COSTA;TRAVESSA BOA ESPERANÇA S/N;-9.6227867;-35.7237253;Barro Duro;;ENCONTRADO;3;33;278;ALDO ROBERTO DA ROCHA LOUREIRO;PDT;41;14.75;13.85;PRIORIDADE NORMAL;MONITORAMENTO
MACEIO;218;402;COLÉGIO SÃO JORGE;RUA ALEXANDRE PASSOS, 359;-9.6704776;-35.720836;Jaraguá;;ENCONTRADO;2;36;235;KELMANN VIEIRA DE OLIVEIRA;MDB;25;10.64;13.83;PRIORIDADE NORMAL;MONITORAMENTO
MACEIO;219;403;ESCOLA ESTADUAL PROFESSOR JOSÉ VITORINO DA ROCHA PINHEIRO;RUA ANTÔNIO PROCÓPIO, 165;-9.6307555;-35.7389083;Pinheiro;;ENCONTRADO;2;37;201;TEREZA NELMA PORTO VIANA SOARES;PT;16;7.96;13.8;PRIORIDADE NORMAL;MONITORAMENTO
ARAPIRACA;52;404;ESCOLA ROTARY;RUA TEODORICO COSTA;-9.7547641;-36.6637919;Centro;;ENCONTRADO;1;41;129;ROGERIO PEREIRA MELO;MDB;12;9.3;13.79;PRIORIDADE NORMAL;MONITORAMENTO
MACEIO;220;405;COLÉGIO SÃO JERÔNIMO;RUA JACI MELO, S/N, C6JX, 7R, JARDIM DA SAÚDE;;;;;NAO_ENCONTRADO;2;32;338;FRANCISCO HOLANDA COSTA FILHO;PL;44;13.02;13.65;PRIORIDADE NORMAL;MONITORAMENTO
MACEIO;221;406;CRECHE AGENOR FERNANDES PONTES;VILA GOIABEIRA, 132;;;;;NAO_ENCONTRADO;2;22;642;MILTON LUNA BARROS NETO;PSB;179;27.88;13.65;PRIORIDADE NORMAL;MONITORAMENTO
MACEIO;222;407;CMEI MARECHAL JOÃO MASCARENHAS DE MORAES;RUA CÔNEGO VALENTE, S/N;-9.6417029;-35.7306236;Pitanguinha;;ENCONTRADO;2;37;179;CLAUDIO MOREIRA DA SILVA;PL;35;19.55;13.59;PRIORIDADE NORMAL;MONITORAMENTO
PALMEIRA DOS INDIOS;16;408;ESCOLA MUNICIPAL PROFESSORA ROSINHA PIMENTEL;AVENIDA CONSELHEIRO SEBASTIÃO LIMA, S/N;-9.4120512;-36.6274423;São Luiz;;ENCONTRADO;4;27;377;PEDRO RODRIGUES GAIA BISNETO;MDB;40;10.61;13.53;PRIORIDADE NORMAL;MONITORAMENTO
DELMIRO GOUVEIA;13;409;JOSE CORREIA FILHO,ESCOLA;POVOADO JARDIM CORDEIRO;;;;;NAO_ENCONTRADO;4;12;794;REGINALDO RODRIGUES SOARES;MDB;574;72.29;13.15;PRIORIDADE NORMAL;MONITORAMENTO
PENEDO;14;410;ESCOLA DE ENSINO FUNDAMENTAL PROFESSOR DOUGLAS APRATTO TENÓRIO;RUA BRASÍLIA, S/N;-10.2825199;-36.5809629;Penedo;;ENCONTRADO;5;21;464;IVO CARLOS MOURA COSTA;PV;79;17.03;13.1;PRIORIDADE NORMAL;MONITORAMENTO
MACEIO;223;411;ESCOLA ESTADUAL SANTA TEREZA DÁVILA;RUA PÃO DE AÇÚCAR, 120;-9.6356714;-35.6981506;Cruz das Almas;;ENCONTRADO;2;32;275;MILTON LUNA BARROS NETO;PSB;61;22.18;13.04;PRIORIDADE NORMAL;MONITORAMENTO
MACEIO;224;412;ESCOLA S E S I;RUA GENERAL HERMES, 485;-9.656623;-35.739444;Bom Parto;;ENCONTRADO;2;35;182;SILVIO SAMPAIO CAMELO;PV;15;8.24;13.03;PRIORIDADE NORMAL;MONITORAMENTO
MARECHAL DEODORO;20;413;ESCOLA MUNICIPAL ADELINA DE CARVALHO MELO;RUA ADELINA DE CARVALHO MELO SN;;;;;NAO_ENCONTRADO;3;21;557;HILDEBRANDO TENÓRIO DE ALBUQUERQUE NETO;PP;175;31.42;13.02;PRIORIDADE NORMAL;MONITORAMENTO
PENEDO;15;414;ESCOLA ESTADUAL HERMÍLIO DE FREITAS MELRO;AVENIDA WANDERLEY, 396, EM FRENTE AO SEMEP;;;;;NAO_ENCONTRADO;3;26;384;ANTONIO DE FIGUEIREDO BARBOSA JUNIOR;PSB;37;9.64;12.82;PRIORIDADE NORMAL;MONITORAMENTO
UNIAO DOS PALMARES;17;415;ESCOLA MUNICIPAL LUIZA DE FRANCA;RUA ALTO DO CRUZEIRO, S/N;-9.1614292;-36.0275299;União dos Palmares;;ENCONTRADO;3;28;316;GIVANILDO GOMES DA SILVA;MDB;31;9.81;12.75;PRIORIDADE NORMAL;MONITORAMENTO
PENEDO;16;416;EMEB HANNA BERTHOLET;POVOADO SANTA MARGARIDA;;;;;NAO_ENCONTRADO;5;15;592;ANTONIO LIRA DA SILVA NETO;PDT;399;67.4;12.57;PRIORIDADE NORMAL;MONITORAMENTO
MACEIO;225;417;ESCOLA MUNICIPAL PROFª ZILKA DE OLIVEIRA GRAÇA (ANTIGO ERALDO GOMES);RUA FIRMO CORREIA DE ARAUJO, 276;-9.567628;-35.7917482;Clima Bom;;ENCONTRADO;2;31;246;GALBA NOVAIS DE CASTRO NETTO;PL;32;13.01;12.47;PRIORIDADE NORMAL;MONITORAMENTO
MACEIO;226;418;ESCOLA DE EDUCAÇÃO BÁSICA JOSÉ GONZAGA;RUA 7 DE SETEMBRO, N 344;-9.5795995;-35.772732;Tabuleiros dos Martins;;ENCONTRADO;1;34;199;GALBA NOVAIS DE CASTRO NETTO;PL;31;15.58;12.41;PRIORIDADE NORMAL;MONITORAMENTO
MACEIO;227;419;CMEI PROFESSORA KYRA MARIA BARROS PAES;AV. MUNIZ FALCÃO, S/N;-9.61561;-35.7188851;Barro Duro;;ENCONTRADO;1;32;253;THALES LUIZ PEIXOTO CAVALCANTE;PSB;36;14.23;12.34;PRIORIDADE NORMAL;MONITORAMENTO
UNIAO DOS PALMARES;18;420;ESCOLA MUNICIPAL LAURA PEREIRA DA SILVA;RUA CUPERTINO DOS PRAZERES, S/N;;;;;NAO_ENCONTRADO;3;29;241;GIVANILDO GOMES DA SILVA;MDB;26;10.79;12.32;PRIORIDADE NORMAL;MONITORAMENTO
DELMIRO GOUVEIA;14;421;ESCOLA ESTADUAL PEDRO NEPOMUCENO DOS SANTOS;RUA PROJETADA, S/N. DISTRITO DE BARRAGEM LESTE;;;;;NAO_ENCONTRADO;7;13;513;REGINALDO RODRIGUES SOARES;MDB;125;24.37;12.19;PRIORIDADE NORMAL;MONITORAMENTO
PALMEIRA DOS INDIOS;17;422;ESCOLA ESTADUAL DIJANIRA SANTOS SILVA;POVOADO SANTO ANTÔNIO;;;;;NAO_ENCONTRADO;3;22;391;FABIANO GOMES DE SOUZA;REPUBLICANOS;85;21.74;11.71;PRIORIDADE NORMAL;MONITORAMENTO
MARECHAL DEODORO;21;423;UBS - MARIA DO CARMO ARAÚJO SOARES;RUA ADELINA DE CARVALHO MELO, S/N;;;;;NAO_ENCONTRADO;3;19;451;HILDEBRANDO TENÓRIO DE ALBUQUERQUE NETO;PP;138;30.6;11.41;PRIORIDADE NORMAL;MONITORAMENTO
PENEDO;17;424;UNIDADE DE ENSINO DE PENEDO/UFAL;AVENIDA BEIRA RIO, S/N, UFAL, PX. À DELEGACIA DE POLÍCIA;;;;;NAO_ENCONTRADO;3;25;241;DENYS MALTA REIS;PV;28;11.62;11.14;PRIORIDADE NORMAL;MONITORAMENTO
PALMEIRA DOS INDIOS;18;425;ESCOLA MUNICIPAL PEDRO RODRIGUES GAIA;POVOADO CORURIPE DA CAL;;;;;NAO_ENCONTRADO;2;19;435;SIDINY TARGINO DA SILVA;PT;250;57.47;10.77;PRIORIDADE NORMAL;MONITORAMENTO
DELMIRO GOUVEIA;15;426;ESCOLA DE EDUCAÇÃO BÁSICA BEABÁ;RUA FREITAS CAVALCANTE, 192;-9.3710699;-38.1897024;Delmiro Gouveia;;ENCONTRADO;4;15;451;EDNA GOMES BERNARDO;MDB;96;21.29;10.72;PRIORIDADE NORMAL;MONITORAMENTO
DELMIRO GOUVEIA;16;427;ERENICE GOMES DE LIMA, ESCOLA ESTADUAL PROFª;RUA MARTINHA CARDEAL  S/N;;;;;NAO_ENCONTRADO;4;16;404;GEORGE LISBOA JUNIOR;MDB;63;15.59;10.56;PRIORIDADE NORMAL;MONITORAMENTO
DELMIRO GOUVEIA;17;428;MANOEL MOURA, COLEGIO DE 1 GRAU;POVOADO BARRAGEM;;;;;NAO_ENCONTRADO;5;11;501;REGINALDO RODRIGUES SOARES;MDB;140;27.94;10.51;PRIORIDADE NORMAL;MONITORAMENTO
DELMIRO GOUVEIA;18;429;JOSE CORREIA DOS SANTOS,GRUPO ESCOLAR;POVOADO SINIMBU;;;;;NAO_ENCONTRADO;4;16;366;JOSE IVAM DE ARAUJO JUNIOR;PT;103;28.14;10.19;PRIORIDADE NORMAL;MONITORAMENTO
DELMIRO GOUVEIA;19;430;SAO JOSE, ESCOLA MUN DE ENSINO FUNDAMENTAL;POVOADO SALGADO;;;;;NAO_ENCONTRADO;2;15;451;FABIOLA MARQUES DE LIMA;MDB;110;24.39;9.74;PRIORIDADE NORMAL;MONITORAMENTO
PALMEIRA DOS INDIOS;19;431;UNIVERSISADE ESTADUAL DE ALAGOAS - UNEAL - PALMERIA DOS ÍNDIOS;RODOVIA EDUARDO ALVES DA SILVA, KM 03;;;;;NAO_ENCONTRADO;1;26;166;GILENO COSTA SAMPAIO FILHO;PRD;19;11.45;9.74;PRIORIDADE NORMAL;MONITORAMENTO
DELMIRO GOUVEIA;20;432;RUI BARBOSA,ESCOLA MUNICIPAL;POVOADO SAO SEBASTIAO;;;;;NAO_ENCONTRADO;3;14;382;EDNA GOMES BERNARDO;MDB;69;18.06;9.27;PRIORIDADE NORMAL;MONITORAMENTO
DELMIRO GOUVEIA;21;433;RAIMYSON SILVA NASCIMENTO, EMEF;POVOADO CARAIBEIRINHAS;;;;;NAO_ENCONTRADO;2;16;341;RENATO DAVID TORRES DE OLIVEIRA;PT;54;15.84;8.97;PRIORIDADE NORMAL;MONITORAMENTO
DELMIRO GOUVEIA;22;434;GRUPO ESCOLAR CASTRO ALVES;POVOADO BARRAGEM;;;;;NAO_ENCONTRADO;4;11;388;REGINALDO RODRIGUES SOARES;MDB;103;26.55;8.93;PRIORIDADE NORMAL;MONITORAMENTO
PALMEIRA DOS INDIOS;20;435;ESCOLA MUNICIPAL NOÉ SIMPLÍCIO;POVOADO BONIFÁCIO;;;;;NAO_ENCONTRADO;3;16;277;ANTONIO GARROTE DA SILVA FILHO;PP;72;25.99;8.84;PRIORIDADE NORMAL;MONITORAMENTO
DELMIRO GOUVEIA;23;436;ANEXO DO CENTRO MUNICIPAL DE EDUCAÇÃO INFANTIL CASINHA FELIZ;RUA MÁRIO PEREIRA, S/N;-9.3788871;-38.0018608;Eldorado;;ENCONTRADO;3;17;231;EDNA GOMES BERNARDO;MDB;38;16.45;8.69;PRIORIDADE NORMAL;MONITORAMENTO
PENEDO;18;437;ESCOLA ESTADUAL CLEMENTINO DO MONTE;PRAÇA CLEMENTINO DO MONTE, S/N (EM FRENTE AO PENEDENSE);;;;;NAO_ENCONTRADO;2;19;206;DENYS MALTA REIS;PV;27;13.11;8.55;PRIORIDADE NORMAL;MONITORAMENTO
PALMEIRA DOS INDIOS;21;438;ESCOLA ESTADUAL EGÍDIO BARBOSA;POVOADO LAGOA DO CALDEIRÃO;;;;;NAO_ENCONTRADO;2;17;258;ANTONIO GARROTE DA SILVA FILHO;PP;59;22.87;8.47;PRIORIDADE NORMAL;MONITORAMENTO
PENEDO;19;439;EMEB SANTO ANTÔNIO;POVOADO TABULEIRO DOS NEGROS;;;;;NAO_ENCONTRADO;2;16;289;WESLEY MARQUES DE OLIVEIRA;SOLIDARIEDADE;71;24.57;8.47;PRIORIDADE NORMAL;MONITORAMENTO
PENEDO;20;440;EMEB PROFª MARIA DA GLÓRIA PIMENTEIRA;POVOADO PONTA MOFINA;;;;;NAO_ENCONTRADO;2;15;276;RIVALDO DOS SANTOS PEREIRA;PP;119;43.12;8.05;PRIORIDADE NORMAL;MONITORAMENTO
PENEDO;21;441;EMEB PROFESSOR IRÊNIO ARAÚJO;POVOADO MARITUBA DO PEIXE;;;;;NAO_ENCONTRADO;2;13;259;DERIVAN THOMAZ;PV;196;75.68;7.3;PRIORIDADE NORMAL;MONITORAMENTO
DELMIRO GOUVEIA;24;442;ANTENOR CORREIA SERPA, ESCOLA MUNICIPAL DR.;POVOADO CRUZ;;;;;NAO_ENCONTRADO;2;13;239;MAREVAL FERREIRA DA SILVA;MDB;52;21.76;7.11;PRIORIDADE NORMAL;MONITORAMENTO
MACEIO;228;443;SUMESE;AV DURVAL DE GOES MONTEIRO, S/N;-9.570224;-35.775279;Tabuleiros dos Martins;;ENCONTRADO;1;15;106;KELMANN VIEIRA DE OLIVEIRA;MDB;84;79.25;5.92;PRIORIDADE NORMAL;MONITORAMENTO
DELMIRO GOUVEIA;25;444;ESCOLA MUNICIPAL DE EDUCAÇÃO BÁSICA JUSCELINO KUBISTCHEK DE OLIVEIRA;POVOADO ALTO BONITO;;;;;NAO_ENCONTRADO;2;13;115;REGINALDO RODRIGUES SOARES;MDB;28;24.35;5.91;PRIORIDADE NORMAL;MONITORAMENTO
MACEIO;229;445;COMPLEXO PENITENCIÁRIO DE MACEIÓ;BR 104 - KM 01;-9.6476843;-35.7339264;;Maceió;ENCONTRADO;1;6;15;ALLAN PIERRE VASCONCELOS;MDB;5;33.33;2.4;PRIORIDADE NORMAL;MONITORAMENTO
